time_s,stage,true_lat,true_lon,true_alt_m,est_lat,est_lon,est_alt_m,pos_error_m,alt_error_m,vel_east_ms,vel_north_ms,vel_up_ms,ground_speed_ms,roll_deg,pitch_deg,yaw_deg,flight_path_angle_deg,distance_traveled_m,distance_to_target_m,gps_valid,tercom_active
0.002,BOOST,56.0,95.0,317.0,56.0,95.0,317.0,0.0,-0.0,-0.0,0.001,0.013,0.013,360.0,88.0,360.0,85.22,0.0,100409.02,1,0
0.1,BOOST,56.0,95.0,317.03,56.0,95.0,317.03,0.0,-0.0,-0.001,0.058,0.673,0.676,0.0,87.98,0.0,85.09,0.03,100409.02,1,0
0.2,BOOST,56.0000001,95.0,317.13,56.0000001,95.0,317.13,0.0,-0.0,-0.001,0.118,1.349,1.354,360.0,87.93,0.0,85.02,0.14,100409.01,1,0
0.3,BOOST,56.0000002,95.0,317.3,55.9999713,95.000057,322.31,4.8,5.0,0.006,0.172,2.035,2.042,360.0,87.85,360.0,85.16,0.31,100412.21,1,0
0.4,BOOST,56.0000004,95.0,317.54,55.9999715,95.000057,322.55,4.8,5.0,0.005,0.236,2.711,2.721,0.0,87.73,0.0,85.03,0.55,100412.19,1,0
0.5,BOOST,56.0000062,94.9999953,317.85,55.9999998,95.000033,322.99,2.46,5.14,-3.013,6.581,3.455,8.02,360.0,87.58,360.0,25.52,1.32,100409.04,1,0
0.6,BOOST,56.0000121,94.9999905,318.23,56.0000057,95.0000281,323.37,2.46,5.14,-3.012,6.654,4.134,8.393,0.0,87.4,0.0,29.51,2.14,100408.38,1,0
0.7,BOOST,56.00002,94.9999906,318.68,56.0000212,95.0000485,323.83,3.62,5.15,0.144,8.845,4.83,10.079,0.0,87.18,0.0,28.63,3.13,100406.66,1,0
0.8,BOOST,56.000028,94.9999908,319.2,56.0000292,95.0000487,324.35,3.62,5.15,0.144,8.929,5.51,10.494,360.0,86.93,0.0,31.68,4.16,100405.78,1,0
0.9,BOOST,56.0000341,94.9999891,319.6,56.0000251,95.0000371,323.31,3.16,3.71,-1.091,6.765,4.31,8.095,360.0,86.66,0.0,32.17,4.95,100406.23,1,0
1.0,BOOST,56.0000402,94.9999874,320.06,56.0000312,95.0000354,323.77,3.16,3.71,-1.091,6.866,4.992,8.559,360.0,86.35,0.0,35.68,5.78,100405.55,1,0
1.1,BOOST,56.0000461,94.9999762,320.23,56.0000352,94.9999645,320.98,1.41,0.76,-7.094,6.631,1.896,9.894,0.0,86.02,0.0,11.05,6.76,100405.1,1,1
1.2,BOOST,56.0000521,94.9999648,320.45,56.0000412,94.9999532,321.21,1.41,0.76,-7.094,6.751,2.58,10.127,0.0,85.66,360.0,14.76,7.76,100404.44,1,1
1.3,BOOST,56.0000593,94.9999546,320.76,56.000057,94.999952,321.64,0.31,0.87,-6.336,8.156,3.457,10.891,360.0,85.26,0.0,18.51,8.84,100402.68,1,1
1.4,BOOST,56.0000667,94.9999445,321.14,56.0000644,94.9999419,322.02,0.31,0.87,-6.335,8.299,4.141,11.232,0.0,84.85,360.0,21.64,9.94,100401.86,1,1
1.5,BOOST,56.0000742,94.9999358,321.56,56.0000719,94.9999469,322.24,0.74,0.68,-5.366,8.454,4.539,10.994,0.0,84.4,360.0,24.38,11.02,100401.03,1,1
1.6,BOOST,56.0000819,94.9999272,322.05,56.0000796,94.9999383,322.73,0.74,0.68,-5.365,8.624,5.223,11.421,360.0,83.93,0.0,27.21,12.14,100400.17,1,1
1.7,BOOST,56.0000909,94.9999184,322.65,56.0001,94.9999269,323.74,1.15,1.09,-5.522,10.081,6.397,13.154,0.0,83.43,360.0,29.1,13.43,100397.9,1,1
1.8,BOOST,56.0001,94.9999096,323.33,56.0001092,94.999918,324.41,1.15,1.09,-5.52,10.279,7.079,13.647,0.0,82.91,0.0,31.25,14.78,100396.88,1,1
1.9,BOOST,56.0001084,94.9998998,323.98,56.0001065,94.9998972,324.14,0.26,0.16,-6.124,9.417,6.828,13.145,360.0,82.36,0.0,31.29,16.07,100397.17,1,1
2.0,BOOST,56.0001169,94.9998899,324.7,56.0001151,94.9998874,324.86,0.26,0.16,-6.122,9.647,7.509,13.672,0.0,81.79,0.0,33.31,17.41,100396.22,1,1
2.1,BOOST,56.0001259,94.999877,325.48,56.0001261,94.9998333,325.6,2.73,0.12,-8.142,10.077,8.157,15.31,360.0,81.19,360.0,32.2,18.91,100395.0,1,1
2.2,BOOST,56.000135,94.9998639,326.33,56.0001353,94.9998202,326.45,2.73,0.12,-8.142,10.343,8.835,15.853,0.0,80.58,360.0,33.87,20.47,100393.98,1,1
2.3,BOOST,56.0001437,94.9998513,327.23,56.0001326,94.9998148,327.12,2.59,-0.1,-7.826,9.729,9.327,15.585,0.0,79.94,360.0,36.76,22.0,100394.27,1,1
2.4,BOOST,56.0001526,94.9998388,328.19,56.0001415,94.9998022,328.09,2.59,-0.1,-7.825,10.032,10.001,16.183,360.0,79.28,0.0,38.17,23.59,100393.29,1,1
2.5,BOOST,56.0001619,94.9998268,329.24,56.0001542,94.9997994,329.26,1.91,0.02,-7.452,10.596,10.766,16.844,0.0,78.6,0.0,39.73,25.25,100391.88,1,1
2.6,BOOST,56.0001716,94.9998149,330.35,56.0001638,94.9997875,330.37,1.91,0.02,-7.451,10.94,11.435,17.492,360.0,77.89,0.0,40.82,26.96,100390.8,1,1
2.7,BOOST,56.0001822,94.9998034,331.53,56.0001853,94.9997841,331.74,1.25,0.2,-7.15,12.027,12.22,18.577,360.0,77.17,360.0,41.13,28.79,100388.41,1,1
2.8,BOOST,56.0001932,94.999792,332.79,56.0001963,94.9997726,332.99,1.25,0.2,-7.149,12.41,12.882,19.263,360.0,76.43,360.0,41.97,30.68,100387.19,1,1
2.9,BOOST,56.0002044,94.9997813,334.12,56.0002055,94.9997764,334.4,0.33,0.29,-6.65,12.689,13.593,19.748,0.0,75.67,360.0,43.5,32.62,100386.17,1,1
3.0,BOOST,56.000216,94.9997706,335.51,56.000217,94.9997657,335.8,0.33,0.29,-6.649,13.117,14.246,20.475,0.0,74.89,0.0,44.09,34.63,100384.89,1,1
3.1,BOOST,56.000228,94.99976,336.93,56.0002289,94.9997555,336.6,0.3,-0.33,-6.635,13.563,14.55,20.969,0.0,74.09,360.0,43.94,36.69,100383.57,1,1
3.2,BOOST,56.0002403,94.9997493,338.42,56.0002413,94.9997448,338.09,0.3,-0.33,-6.634,14.037,15.192,21.722,0.0,73.28,0.0,44.38,38.83,100382.19,1,1
3.3,BOOST,56.000253,94.9997388,339.96,56.0002502,94.9997374,339.43,0.32,-0.53,-6.54,14.333,15.723,22.258,360.0,72.45,0.0,44.94,41.02,100381.2,1,1
3.4,BOOST,56.0002661,94.9997284,341.56,56.0002633,94.9997269,341.04,0.32,-0.53,-6.538,14.854,16.354,23.04,360.0,71.61,360.0,45.22,43.28,100379.74,1,1
3.5,BOOST,56.0002798,94.999718,343.24,56.0002806,94.999719,343.0,0.11,-0.24,-6.469,15.581,17.118,24.034,360.0,70.75,360.0,45.42,45.65,100377.82,1,1
3.6,BOOST,56.0002941,94.9997076,344.99,56.0002949,94.9997086,344.74,0.11,-0.24,-6.468,16.151,17.733,24.842,0.0,69.87,360.0,45.55,48.09,100376.23,1,1
3.7,BOOST,56.0003093,94.9996975,346.78,56.0003207,94.9997034,346.4,1.32,-0.38,-6.335,17.25,18.277,25.919,0.0,68.99,360.0,44.84,50.64,100373.36,1,1
3.8,BOOST,56.0003251,94.9996873,348.64,56.0003364,94.9996932,348.26,1.32,-0.38,-6.333,17.871,18.875,26.754,0.0,68.08,0.0,44.87,53.27,100371.61,1,1
3.9,BOOST,56.0003412,94.9996773,350.57,56.000346,94.9996858,350.56,0.76,-0.02,-6.264,18.222,19.624,27.502,0.0,67.17,0.0,45.52,55.98,100370.55,1,1
4.0,BOOST,56.0003578,94.9996672,352.57,56.0003626,94.9996758,352.55,0.76,-0.02,-6.263,18.891,20.204,28.36,360.0,66.24,360.0,45.43,58.78,100368.7,1,1
4.1,BOOST,56.0003752,94.999657,354.61,56.0003816,94.9996608,354.58,0.75,-0.03,-6.376,19.656,20.767,29.296,0.0,65.3,0.0,45.14,61.66,100366.59,1,1
4.2,BOOST,56.0003931,94.9996468,356.72,56.0003995,94.9996506,356.69,0.75,-0.03,-6.374,20.378,21.326,30.178,0.0,64.35,360.0,44.96,64.64,100364.59,1,1
4.3,BOOST,56.000412,94.9996368,358.86,56.0004239,94.9996463,358.33,1.45,-0.53,-6.242,21.35,21.679,31.061,0.0,63.39,360.0,44.26,67.7,100361.89,1,1
4.4,BOOST,56.0004315,94.9996268,361.06,56.0004434,94.9996363,360.53,1.45,-0.53,-6.24,22.124,22.215,31.967,360.0,62.42,360.0,44.02,70.85,100359.72,1,1
4.5,BOOST,56.0004519,94.9996165,363.31,56.0004694,94.9996168,362.98,1.95,-0.33,-6.439,23.14,22.81,33.124,0.0,61.44,360.0,43.52,74.12,100356.83,1,1
4.6,BOOST,56.000473,94.9996061,365.62,56.0004905,94.9996065,365.28,1.95,-0.33,-6.438,23.964,23.319,34.052,0.0,60.45,360.0,43.22,77.48,100354.48,1,1
4.7,BOOST,56.000495,94.9995959,367.98,56.0005134,94.999599,367.79,2.06,-0.18,-6.379,24.851,23.866,35.041,0.0,59.46,360.0,42.93,80.94,100351.94,1,1
4.8,BOOST,56.0005177,94.9995857,370.39,56.0005361,94.9995888,370.2,2.06,-0.18,-6.376,25.729,24.347,35.992,0.0,58.45,0.0,42.57,84.49,100349.41,1,1
4.9,BOOST,56.0005411,94.9995755,372.84,56.0005564,94.9995808,372.48,1.73,-0.36,-6.332,26.523,24.754,36.828,0.0,57.44,0.0,42.23,88.13,100347.15,1,1
5.0,BOOST,56.0005653,94.9995654,375.34,56.0005806,94.9995706,374.98,1.73,-0.36,-6.33,27.454,25.204,37.803,0.0,56.42,0.0,41.81,91.86,100344.46,1,1
5.1,BOOST,56.0005903,94.9995554,377.89,56.0006021,94.999564,377.75,1.42,-0.14,-6.263,28.289,25.707,38.735,360.0,55.4,0.0,41.58,95.68,100342.07,1,1
5.2,BOOST,56.0006162,94.9995453,380.48,56.000628,94.9995539,380.34,1.42,-0.14,-6.262,29.27,26.126,39.731,360.0,54.37,0.0,41.11,99.61,100339.2,1,1
5.3,BOOST,56.0006427,94.9995354,383.11,56.0006472,94.9995473,383.02,0.9,-0.09,-6.198,30.038,26.539,40.559,360.0,53.34,0.0,40.87,103.61,100337.06,1,1
5.4,BOOST,56.0006701,94.9995254,385.79,56.0006746,94.9995373,385.69,0.9,-0.09,-6.198,31.07,26.92,41.575,360.0,52.3,360.0,40.35,107.72,100334.01,1,1
5.5,BOOST,56.0006986,94.9995155,388.49,56.0007063,94.9995265,388.26,1.1,-0.23,-6.211,32.228,27.243,42.654,0.0,51.26,0.0,39.69,111.94,100330.48,1,1
5.6,BOOST,56.000728,94.9995055,391.24,56.0007357,94.9995166,391.0,1.1,-0.23,-6.209,33.308,27.586,43.691,0.0,50.21,0.0,39.15,116.26,100327.21,1,1
5.7,BOOST,56.0007584,94.9994955,394.02,56.0007654,94.9995045,393.96,0.96,-0.05,-6.242,34.392,27.961,44.761,360.0,49.17,0.0,38.66,120.68,100323.92,1,1
5.8,BOOST,56.0007898,94.9994855,396.83,56.0007968,94.9994945,396.77,0.96,-0.05,-6.24,35.521,28.266,45.822,360.0,48.12,0.0,38.09,125.21,100320.43,1,1
5.9,BOOST,56.0008222,94.9994757,399.66,56.0008279,94.9994917,399.37,1.18,-0.29,-6.125,36.636,28.483,46.808,0.0,47.07,360.0,37.48,129.84,100316.96,1,1
6.0,BOOST,56.0008556,94.9994659,402.52,56.0008613,94.9994818,402.23,1.18,-0.29,-6.124,37.813,28.745,47.891,0.0,46.02,360.0,36.88,134.57,100313.25,1,1
6.1,BOOST,56.00089,94.9994558,405.41,56.0008918,94.999461,405.18,0.38,-0.23,-6.293,38.901,29.002,48.929,0.0,44.97,0.0,36.35,139.41,100309.86,1,1
6.2,BOOST,56.0009255,94.9994457,408.32,56.0009273,94.9994509,408.09,0.38,-0.23,-6.29,40.123,29.221,50.033,0.0,43.92,0.0,35.74,144.36,100305.91,1,1
6.3,BOOST,56.0009622,94.9994356,411.25,56.0009678,94.9994377,410.85,0.63,-0.4,-6.333,41.469,29.378,51.214,360.0,42.87,0.0,35.0,149.43,100301.41,1,1
6.4,BOOST,56.001,94.9994254,414.2,56.0010056,94.9994276,413.8,0.63,-0.4,-6.329,42.735,29.551,52.341,360.0,41.83,0.0,34.37,154.61,100297.21,1,1
6.5,BOOST,56.0010389,94.9994152,417.16,56.001043,94.999412,416.71,0.49,-0.44,-6.405,43.98,29.691,53.449,0.0,40.78,360.0,33.74,159.9,100293.05,1,1
6.6,BOOST,56.001079,94.9994049,420.13,56.0010831,94.9994017,419.69,0.49,-0.44,-6.403,45.288,29.819,54.6,360.0,39.74,360.0,33.1,165.3,100288.6,1,1
6.7,BOOST,56.0011203,94.9993947,423.12,56.0011258,94.9993934,422.62,0.62,-0.51,-6.373,46.653,29.909,55.783,0.0,38.7,0.0,32.42,170.82,100283.84,1,1
6.8,BOOST,56.0011628,94.9993845,426.12,56.0011683,94.9993831,425.61,0.62,-0.51,-6.37,48.001,29.989,56.956,0.0,37.67,360.0,31.77,176.46,100279.11,1,1
6.9,BOOST,56.0012065,94.9993742,429.12,56.0012107,94.9993716,428.82,0.49,-0.3,-6.384,49.332,30.092,58.137,360.0,36.64,0.0,31.17,182.22,100274.41,1,1
7.0,BOOST,56.0012515,94.999364,432.13,56.0012556,94.9993614,431.83,0.49,-0.3,-6.381,50.717,30.122,59.331,0.0,35.62,0.0,30.51,188.09,100269.41,1,1
7.1,BOOST,56.0012976,94.9993538,435.15,56.0013008,94.999353,434.81,0.36,-0.33,-6.353,52.095,30.12,60.51,0.0,34.6,360.0,29.85,194.08,100264.39,1,1
7.2,BOOST,56.001345,94.9993436,438.16,56.0013482,94.9993428,437.83,0.36,-0.33,-6.349,53.514,30.102,61.727,0.0,33.59,0.0,29.19,200.2,100259.11,1,1
7.3,BOOST,56.0013938,94.9993335,441.16,56.0013997,94.9993322,440.77,0.66,-0.4,-6.351,55.014,30.043,63.003,360.0,32.58,0.0,28.48,206.44,100253.39,1,1
7.4,BOOST,56.0014439,94.9993233,444.16,56.0014497,94.9993221,443.77,0.66,-0.4,-6.348,56.465,29.973,64.242,360.0,31.59,0.0,27.81,212.8,100247.82,1,1
7.5,BOOST,56.0014952,94.999313,447.16,56.0015002,94.9993084,446.79,0.62,-0.37,-6.388,57.912,29.884,65.48,360.0,30.6,0.0,27.15,219.29,100242.22,1,1
7.6,BOOST,56.0015479,94.9993028,450.14,56.0015528,94.9992981,449.77,0.62,-0.37,-6.385,59.393,29.763,66.739,0.0,29.62,0.0,26.48,225.9,100236.36,1,1
7.7,BOOST,56.0016019,94.9992925,453.12,56.0016087,94.9992851,453.06,0.88,-0.06,-6.416,60.93,29.681,68.078,0.0,28.65,0.0,25.85,232.64,100230.15,1,1
7.8,BOOST,56.0016573,94.9992822,456.08,56.0016641,94.9992748,456.02,0.88,-0.06,-6.412,62.441,29.508,69.359,0.0,27.69,0.0,25.18,239.52,100223.99,1,1
7.9,BOOST,56.0017141,94.999272,459.02,56.0017193,94.9992673,458.97,0.65,-0.05,-6.374,63.931,29.311,70.619,0.0,26.74,360.0,24.52,246.51,100217.85,1,1
8.0,BOOST,56.0017722,94.9992618,461.94,56.0017774,94.9992571,461.89,0.65,-0.05,-6.37,65.467,29.088,71.921,0.0,25.8,0.0,23.86,253.64,100211.39,1,1
8.1,BOOST,56.0018317,94.9992516,464.83,56.0018387,94.9992455,464.77,0.87,-0.06,-6.382,67.052,28.836,73.268,0.0,24.87,0.0,23.18,260.9,100204.58,1,1
8.2,BOOST,56.0018926,94.9992413,467.7,56.0018996,94.9992352,467.64,0.87,-0.06,-6.377,68.611,28.561,74.591,360.0,23.95,0.0,22.51,268.3,100197.8,1,1
8.3,BOOST,56.001955,94.9992312,470.54,56.0019616,94.9992272,470.4,0.78,-0.15,-6.347,70.174,28.246,75.912,0.0,23.05,0.0,21.84,275.82,100190.91,1,1
8.4,BOOST,56.0020187,94.999221,473.35,56.0020254,94.999217,473.21,0.78,-0.15,-6.343,71.754,27.921,77.255,360.0,22.16,0.0,21.19,283.48,100183.82,1,1
8.5,BOOST,56.0020838,94.9992108,476.13,56.0020886,94.9992043,475.93,0.67,-0.2,-6.366,73.305,27.562,78.574,360.0,21.29,0.0,20.54,291.28,100176.78,1,1
8.6,BOOST,56.0021504,94.9992006,478.86,56.0021552,94.9991941,478.66,0.67,-0.2,-6.361,74.903,27.188,79.938,360.0,20.43,0.0,19.88,299.2,100169.38,1,1
8.7,BOOST,56.0022184,94.9991905,481.56,56.0022236,94.999188,481.45,0.61,-0.11,-6.31,76.519,26.807,81.323,360.0,19.58,360.0,19.25,307.27,100161.78,1,1
8.8,BOOST,56.0022878,94.9991804,484.22,56.0022931,94.9991779,484.11,0.61,-0.11,-6.306,78.132,26.383,82.707,360.0,18.75,0.0,18.6,315.47,100154.05,1,1
8.9,BOOST,56.0023587,94.9991703,486.84,56.0023639,94.9991677,486.84,0.6,-0.0,-6.302,79.752,25.956,84.106,360.0,17.94,0.0,17.98,323.81,100146.18,1,1
9.0,BOOST,56.0024311,94.9991602,489.41,56.0024363,94.9991576,489.41,0.6,-0.0,-6.297,81.38,25.486,85.51,360.0,17.14,360.0,17.34,332.29,100138.13,1,1
9.1,BOOST,56.0025049,94.9991501,491.94,56.0025125,94.999148,491.76,0.85,-0.17,-6.287,83.058,24.963,86.956,0.0,16.36,360.0,16.68,340.92,100129.66,1,1
9.2,BOOST,56.0025803,94.99914,494.41,56.0025878,94.999138,494.23,0.85,-0.17,-6.28,84.697,24.449,88.379,0.0,15.6,360.0,16.06,349.69,100121.28,1,1
9.3,BOOST,56.002657,94.9991299,496.83,56.0026628,94.9991274,496.69,0.66,-0.14,-6.28,86.309,23.918,89.781,360.0,14.86,0.0,15.45,358.6,100112.94,1,1
9.4,BOOST,56.0027353,94.9991199,499.19,56.0027411,94.9991174,499.05,0.66,-0.14,-6.275,87.957,23.36,91.222,360.0,14.14,360.0,14.84,367.65,100104.24,1,1
9.5,BOOST,56.002815,94.9991099,501.5,56.0028212,94.9991112,501.45,0.69,-0.05,-6.232,89.616,22.796,92.68,0.0,13.43,360.0,14.24,376.84,100095.33,1,1
9.6,BOOST,56.0028963,94.9990999,503.75,56.0029025,94.9991012,503.7,0.69,-0.05,-6.227,91.272,22.195,94.138,0.0,12.75,0.0,13.64,386.19,100086.3,1,1
9.7,BOOST,56.002979,94.9990899,505.93,56.0029873,94.9990882,505.69,0.92,-0.24,-6.251,92.968,21.544,95.636,0.0,12.09,360.0,13.02,395.68,100076.87,1,1
9.8,BOOST,56.0030633,94.9990799,508.06,56.0030715,94.9990781,507.82,0.92,-0.24,-6.246,94.63,20.905,97.112,360.0,11.45,360.0,12.43,405.32,100067.5,1,1
9.9,BOOST,56.003149,94.9990699,510.11,56.0031599,94.9990716,509.74,1.21,-0.37,-6.207,96.339,20.225,98.634,0.0,10.83,360.0,11.83,415.11,100057.67,1,1
10.0,BOOST,56.0032363,94.99906,512.1,56.0032471,94.9990617,511.73,1.21,-0.37,-6.204,98.005,19.55,100.128,360.0,10.23,0.0,11.26,425.05,100047.97,1,1
10.1,BOOST,56.0033251,94.99905,514.02,56.0033343,94.9990517,513.71,1.04,-0.31,-6.197,99.646,18.866,101.606,0.0,9.66,0.0,10.7,435.13,100038.28,1,0
10.2,BOOST,56.0034153,94.9990401,515.87,56.0034246,94.9990418,515.56,1.04,-0.31,-6.191,101.316,18.156,103.116,0.0,9.11,360.0,10.14,445.37,100028.24,1,0
10.3,BOOST,56.003507,94.9990302,517.65,56.0035154,94.9990357,517.26,0.99,-0.39,-6.15,102.97,17.42,104.614,360.0,8.59,0.0,9.59,455.76,100018.14,1,0
10.4,BOOST,56.0036003,94.9990204,519.36,56.0036086,94.9990259,518.97,0.99,-0.39,-6.144,104.641,16.678,106.14,360.0,8.09,360.0,9.04,466.3,100007.78,1,0
10.5,BOOST,56.003695,94.9990105,520.99,56.0037014,94.9990111,520.5,0.71,-0.48,-6.182,106.281,15.908,107.642,360.0,7.62,360.0,8.5,476.99,99997.46,1,0
10.6,BOOST,56.0037912,94.9990006,522.54,56.0037976,94.9990012,522.05,0.71,-0.48,-6.175,107.951,15.138,109.182,360.0,7.17,0.0,7.97,487.83,99986.76,1,0
10.7,BOOST,56.0038889,94.9989907,524.01,56.0038963,94.9989917,523.67,0.83,-0.34,-6.166,109.636,14.378,110.747,0.0,6.75,360.0,7.46,498.83,99975.79,1,0
10.8,BOOST,56.0039881,94.9989808,525.41,56.0039955,94.9989818,525.07,0.83,-0.34,-6.159,111.307,13.584,112.302,0.0,6.36,0.0,6.95,509.98,99964.76,1,0
10.9,BOOST,56.0040888,94.998971,526.73,56.0040945,94.9989747,526.39,0.68,-0.34,-6.129,112.949,12.78,113.834,0.0,6.0,360.0,6.45,521.29,99953.75,1,0
11.0,BOOST,56.004191,94.9989611,527.97,56.0041967,94.9989649,527.62,0.68,-0.34,-6.122,114.617,11.966,115.402,360.0,5.66,360.0,5.95,532.75,99942.39,1,0
11.1,BOOST,56.0042947,94.9989514,529.13,56.0043004,94.9989585,528.88,0.77,-0.24,-6.087,116.283,11.156,116.976,360.0,5.35,360.0,5.47,544.37,99930.86,1,0
11.2,BOOST,56.0043999,94.9989416,530.2,56.0044056,94.9989487,529.96,0.77,-0.24,-6.081,117.949,10.325,118.556,0.0,5.08,0.0,5.0,556.15,99919.16,1,0
11.3,BOOST,56.0045066,94.9989319,531.19,56.0045112,94.9989426,531.02,0.84,-0.18,-6.044,119.598,9.496,120.126,0.0,4.83,0.0,4.53,568.09,99907.41,1,0
11.4,BOOST,56.0046147,94.9989222,532.1,56.0046194,94.9989329,531.92,0.84,-0.18,-6.036,121.26,8.651,121.718,360.0,4.61,360.0,4.08,580.18,99895.39,1,0
11.5,BOOST,56.0047244,94.9989125,532.92,56.0047284,94.9989183,532.83,0.58,-0.1,-6.069,122.909,7.811,123.306,0.0,4.43,360.0,3.63,592.43,99883.27,1,0
11.6,BOOST,56.0048355,94.9989028,533.66,56.0048395,94.9989086,533.56,0.58,-0.1,-6.061,124.568,6.956,124.909,0.0,4.28,0.0,3.19,604.84,99870.91,1,0
11.7,BOOST,56.0049481,94.9988931,534.31,56.0049498,94.9988967,534.04,0.3,-0.27,-6.071,126.191,6.075,126.483,360.0,4.16,0.0,2.75,617.41,99858.65,1,0
11.8,BOOST,56.0050622,94.9988833,534.88,56.0050639,94.998887,534.6,0.3,-0.27,-6.064,127.845,5.216,128.095,360.0,4.07,0.0,2.33,630.14,99845.96,1,0
11.9,BOOST,56.0051777,94.9988736,535.35,56.0051789,94.9988725,535.09,0.15,-0.26,-6.094,129.487,4.357,129.704,360.0,4.02,0.0,1.92,643.04,99833.17,1,0
12.0,CRUISE,56.0052948,94.9988638,535.75,56.0052959,94.9988627,535.49,0.15,-0.26,-6.087,131.135,3.494,131.322,360.0,4.0,360.0,1.52,656.09,99820.16,1,0
12.1,CRUISE,56.0054126,94.9988545,536.02,56.0054152,94.9988562,535.85,0.31,-0.17,-5.464,131.289,2.068,131.419,0.0,0.9,357.62,0.9,669.23,99806.9,1,0
12.2,CRUISE,56.0055306,94.9988463,536.16,56.0055332,94.9988479,535.99,0.31,-0.17,-4.86,131.417,0.627,131.508,0.0,0.27,357.88,0.27,682.37,99793.78,1,0
12.3,CRUISE,56.0056487,94.998839,536.15,56.0056519,94.9988399,536.07,0.36,-0.08,-4.26,131.545,-0.803,131.616,360.0,359.65,358.15,-0.35,695.53,99780.58,1,0
12.4,CRUISE,56.0057669,94.9988326,536.0,56.0057701,94.9988336,535.92,0.36,-0.08,-3.654,131.656,-2.246,131.726,0.0,359.02,358.41,-0.98,708.7,99767.44,1,0
12.5,CRUISE,56.0058852,94.9988272,535.7,56.0058895,94.9988255,535.53,0.49,-0.17,-3.062,131.775,-3.695,131.862,0.0,358.39,358.67,-1.61,721.88,99754.16,1,0
12.6,CRUISE,56.0060036,94.9988228,535.26,56.0060079,94.9988211,535.09,0.49,-0.17,-2.447,131.869,-5.138,131.992,0.0,357.77,358.94,-2.23,735.07,99741.0,1,0
12.7,CRUISE,56.0061221,94.9988194,534.68,56.0061264,94.9988173,534.62,0.5,-0.05,-1.829,131.956,-6.564,132.132,0.0,357.15,359.21,-2.85,748.28,99727.82,1,0
12.8,CRUISE,56.0062406,94.9988169,533.95,56.0062449,94.9988149,533.9,0.5,-0.05,-1.202,132.037,-7.997,132.284,0.0,356.53,359.48,-3.47,761.5,99714.64,1,0
12.9,CRUISE,56.0063592,94.9988155,533.08,56.006364,94.9988131,533.2,0.55,0.12,-0.572,132.115,-9.406,132.451,0.0,355.93,359.75,-4.07,774.73,99701.4,1,0
13.0,CRUISE,56.0064779,94.9988151,532.07,56.0064827,94.9988127,532.19,0.55,0.12,0.069,132.181,-10.829,132.623,0.0,355.32,0.03,-4.68,787.99,99688.21,1,0
13.1,CRUISE,56.0065966,94.9988157,530.91,56.0066007,94.9988138,531.13,0.47,0.21,0.723,132.228,-12.234,132.795,0.0,354.71,0.31,-5.29,801.26,99675.08,1,0
13.2,CRUISE,56.0067154,94.9988174,529.62,56.0067195,94.9988155,529.83,0.47,0.21,1.379,132.278,-13.642,132.987,0.0,354.11,0.6,-5.89,814.55,99661.87,1,0
13.3,CRUISE,56.0068343,94.9988202,528.19,56.0068382,94.9988212,528.3,0.44,0.11,2.069,132.319,-15.045,133.187,360.0,353.51,0.9,-6.49,827.86,99648.68,1,0
13.4,CRUISE,56.0069531,94.9988241,526.61,56.006957,94.998825,526.73,0.44,0.11,2.744,132.354,-16.434,133.399,0.0,352.92,1.19,-7.08,841.19,99635.46,1,0
13.5,CRUISE,56.007072,94.9988291,524.9,56.0070763,94.9988333,525.18,0.55,0.28,3.452,132.387,-17.797,133.623,0.0,352.35,1.49,-7.65,854.54,99622.2,1,0
13.6,CRUISE,56.0071909,94.9988351,523.05,56.0071952,94.9988394,523.33,0.55,0.28,4.147,132.41,-19.167,133.855,0.0,351.77,1.79,-8.23,867.91,99608.98,1,0
13.7,CRUISE,56.0073099,94.9988423,521.07,56.0073175,94.9988454,521.25,0.87,0.19,4.846,132.468,-20.524,134.136,0.0,351.2,2.1,-8.8,881.31,99595.38,1,0
13.8,CRUISE,56.0074289,94.9988507,518.95,56.0074365,94.9988537,519.13,0.87,0.19,5.561,132.477,-21.867,134.385,0.0,350.64,2.4,-9.36,894.74,99582.15,1,0
13.9,CRUISE,56.0075478,94.9988602,516.7,56.0075552,94.9988639,516.98,0.86,0.29,6.289,132.477,-23.189,134.638,0.0,350.08,2.72,-9.92,908.19,99568.94,1,0
14.0,CRUISE,56.0076668,94.9988709,514.31,56.0076742,94.9988746,514.6,0.86,0.29,7.024,132.473,-24.504,134.903,0.0,349.53,3.03,-10.47,921.67,99555.71,1,0
14.1,CRUISE,56.0077858,94.9988827,511.8,56.0077918,94.9988873,512.02,0.72,0.22,7.778,132.45,-25.803,135.164,360.0,348.99,3.36,-11.01,935.17,99542.64,1,0
14.2,CRUISE,56.0079047,94.9988958,509.15,56.0079107,94.9989003,509.37,0.72,0.22,8.534,132.438,-27.085,135.448,360.0,348.47,3.69,-11.53,948.7,99529.41,1,0
14.3,CRUISE,56.0080237,94.9989101,506.38,56.0080294,94.9989127,506.57,0.66,0.19,9.289,132.418,-28.348,135.737,360.0,347.95,4.01,-12.05,962.26,99516.21,1,0
14.4,CRUISE,56.0081426,94.9989256,503.48,56.0081483,94.9989282,503.67,0.66,0.19,10.067,132.396,-29.593,136.036,0.0,347.44,4.35,-12.56,975.85,99502.99,1,0
14.5,CRUISE,56.0082615,94.9989423,500.46,56.0082681,94.998944,500.64,0.74,0.18,10.851,132.381,-30.819,136.354,360.0,346.94,4.69,-13.06,989.47,99489.67,1,0
14.6,CRUISE,56.0083804,94.9989604,497.32,56.008387,94.998962,497.5,0.74,0.18,11.648,132.353,-32.022,136.669,360.0,346.45,5.03,-13.55,1003.12,99476.45,1,0
14.7,CRUISE,56.0084992,94.9989797,494.06,56.0085039,94.9989802,494.1,0.52,0.04,12.448,132.303,-33.203,136.972,360.0,345.97,5.37,-14.03,1016.8,99463.45,1,0
14.8,CRUISE,56.008618,94.9990003,490.68,56.0086227,94.9990008,490.72,0.52,0.04,13.266,132.269,-34.359,137.302,360.0,345.51,5.73,-14.49,1030.52,99450.24,1,0
14.9,CRUISE,56.0087368,94.9990222,487.19,56.0087421,94.9990222,487.47,0.59,0.28,14.086,132.242,-35.475,137.64,0.0,345.06,6.08,-14.94,1044.26,99436.96,1,0
15.0,CRUISE,56.0088556,94.9990455,483.58,56.0088609,94.9990455,483.86,0.59,0.28,14.922,132.207,-36.581,137.984,0.0,344.63,6.44,-15.37,1058.05,99423.75,1,0
15.1,CRUISE,56.0089743,94.99907,479.87,56.00898,94.9990693,480.19,0.64,0.32,15.76,132.175,-37.66,138.336,360.0,344.2,6.8,-15.8,1071.86,99410.5,1,0
15.2,CRUISE,56.009093,94.999096,476.05,56.0090987,94.9990953,476.37,0.64,0.32,16.61,132.14,-38.71,138.691,360.0,343.79,7.16,-16.21,1085.71,99397.3,1,0
15.3,CRUISE,56.0092116,94.9991233,472.13,56.0092157,94.9991234,472.3,0.45,0.17,17.469,132.093,-39.737,139.042,0.0,343.39,7.53,-16.61,1099.6,99384.29,1,0
15.4,CRUISE,56.0093303,94.999152,468.11,56.0093343,94.9991521,468.28,0.45,0.17,18.332,132.059,-40.735,139.41,0.0,343.01,7.9,-16.99,1113.52,99371.1,1,0
15.5,CRUISE,56.0094489,94.9991821,463.98,56.009453,94.9991854,464.03,0.5,0.05,19.216,132.031,-41.705,139.788,360.0,342.64,8.28,-17.36,1127.48,99357.91,1,0
15.6,CRUISE,56.0095674,94.9992136,459.77,56.0095715,94.9992169,459.81,0.5,0.05,20.088,132.002,-42.646,140.167,360.0,342.29,8.65,-17.71,1141.48,99344.73,1,0
15.7,CRUISE,56.009686,94.9992465,455.46,56.0096899,94.9992488,455.56,0.46,0.1,20.955,131.972,-43.56,140.546,0.0,341.94,9.02,-18.06,1155.52,99331.56,1,0
15.8,CRUISE,56.0098045,94.9992808,451.06,56.0098084,94.9992831,451.16,0.46,0.1,21.832,131.95,-44.441,140.934,360.0,341.62,9.39,-18.38,1169.59,99318.38,1,0
15.9,CRUISE,56.009923,94.9993165,446.57,56.0099264,94.9993161,446.68,0.38,0.12,22.694,131.923,-45.297,141.317,0.0,341.3,9.76,-18.7,1183.7,99305.27,1,0
16.0,CRUISE,56.0100415,94.9993536,442.0,56.0100449,94.9993532,442.11,0.38,0.12,23.575,131.907,-46.122,141.713,0.0,341.01,10.13,-18.99,1197.86,99292.09,1,0
16.1,CRUISE,56.0101599,94.9993921,437.35,56.0101633,94.9993921,437.3,0.37,-0.04,24.45,131.901,-46.922,142.117,0.0,340.72,10.5,-19.28,1212.05,99278.92,1,0
16.2,CRUISE,56.0102784,94.999432,432.61,56.0102817,94.999432,432.57,0.37,-0.04,25.328,131.897,-47.685,142.52,0.0,340.45,10.87,-19.55,1226.28,99265.75,1,0
16.3,CRUISE,56.0103969,94.9994733,427.81,56.0104005,94.9994742,427.63,0.41,-0.18,26.204,131.907,-48.422,142.937,360.0,340.2,11.24,-19.8,1240.55,99252.54,1,0
16.4,CRUISE,56.0105153,94.999516,422.93,56.010519,94.9995169,422.75,0.41,-0.18,27.076,131.915,-49.128,143.346,0.0,339.96,11.6,-20.04,1254.87,99239.36,1,0
16.5,CRUISE,56.0106338,94.9995601,417.98,56.0106369,94.9995606,417.9,0.35,-0.09,27.941,131.919,-49.807,143.75,360.0,339.73,11.96,-20.27,1269.22,99226.25,1,0
16.6,CRUISE,56.0107523,94.9996056,412.97,56.0107554,94.9996061,412.88,0.35,-0.09,28.805,131.94,-50.456,144.165,360.0,339.51,12.32,-20.49,1283.62,99213.07,1,0
16.7,CRUISE,56.0108708,94.9996525,407.89,56.0108733,94.9996542,407.91,0.29,0.02,29.671,131.956,-51.082,144.576,0.0,339.31,12.67,-20.69,1298.06,99199.97,1,0
16.8,CRUISE,56.0109893,94.9997007,402.76,56.0109918,94.9997024,402.77,0.29,0.02,30.524,131.989,-51.678,144.995,360.0,339.12,13.02,-20.88,1312.54,99186.79,1,0
16.9,CRUISE,56.0111079,94.9997503,397.56,56.0111099,94.9997526,397.58,0.27,0.02,31.376,132.026,-52.25,145.415,0.0,338.94,13.37,-21.06,1327.06,99173.66,1,0
17.0,CRUISE,56.0112265,94.9998013,392.31,56.0112285,94.9998036,392.33,0.27,0.02,32.22,132.073,-52.796,145.839,0.0,338.78,13.71,-21.22,1341.62,99160.47,1,0
17.1,CRUISE,56.0113451,94.9998536,387.0,56.0113457,94.9998573,386.87,0.24,-0.13,33.058,132.118,-53.328,146.259,0.0,338.62,14.05,-21.38,1356.22,99147.43,1,0
17.2,CRUISE,56.0114638,94.9999073,381.64,56.0114644,94.999911,381.51,0.24,-0.13,33.887,132.179,-53.828,146.687,360.0,338.47,14.38,-21.53,1370.87,99134.23,1,0
17.3,CRUISE,56.0115825,94.9999623,376.23,56.0115831,94.9999704,375.94,0.5,-0.29,34.735,132.246,-54.32,147.126,0.0,338.33,14.72,-21.67,1385.56,99121.04,1,0
17.4,CRUISE,56.0117014,95.0000187,370.78,56.0117019,95.0000267,370.49,0.5,-0.29,35.554,132.318,-54.781,147.557,360.0,338.21,15.04,-21.79,1400.3,99107.83,1,0
17.5,CRUISE,56.0118202,95.0000763,365.28,56.0118204,95.0000842,365.14,0.49,-0.14,36.367,132.385,-55.222,147.979,0.0,338.09,15.36,-21.91,1415.07,99094.65,1,0
17.6,CRUISE,56.0119392,95.0001353,359.73,56.0119393,95.0001432,359.59,0.49,-0.14,37.17,132.469,-55.641,148.41,0.0,337.98,15.67,-22.02,1429.89,99081.43,1,0
17.7,CRUISE,56.0120582,95.0001955,354.15,56.0120584,95.0002035,354.11,0.5,-0.04,37.972,132.556,-56.039,148.84,360.0,337.88,15.98,-22.12,1444.76,99068.18,1,0
17.8,CRUISE,56.0121773,95.000257,348.53,56.0121775,95.000265,348.48,0.5,-0.04,38.762,132.652,-56.421,149.273,0.0,337.79,16.29,-22.21,1459.66,99054.94,1,0
17.9,CRUISE,56.0122964,95.0003198,342.87,56.0122951,95.00033,342.85,0.65,-0.02,39.557,132.739,-56.784,149.695,0.0,337.71,16.59,-22.29,1474.61,99041.87,1,0
18.0,CRUISE,56.0124157,95.0003839,337.17,56.0124143,95.000394,337.15,0.65,-0.02,40.333,132.848,-57.128,150.13,0.0,337.63,16.89,-22.37,1489.6,99028.61,1,0
18.1,CRUISE,56.0125351,95.0004491,331.44,56.0125318,95.0004562,331.32,0.57,-0.12,41.082,132.946,-57.463,150.546,360.0,337.56,17.17,-22.44,1504.64,99015.55,1,0
18.2,CRUISE,56.0126545,95.0005156,325.68,56.0126513,95.0005226,325.55,0.57,-0.12,41.842,133.066,-57.772,150.98,360.0,337.5,17.46,-22.5,1519.71,99002.27,1,0
