time_s,stage,true_lat,true_lon,true_alt_m,ground_alt_m,agl_m,est_lat,est_lon,est_alt_m,pos_error_m,alt_error_m,vel_east_ms,vel_north_ms,vel_up_ms,ground_speed_ms,roll_deg,pitch_deg,yaw_deg,flight_path_angle_deg,distance_traveled_m,distance_to_target_m,gps_valid,tercom_active
0.001,BOOST,56.0,95.0,317.0,317.0,0.0,56.0,95.0,317.0,0.0,0.0,-0.0,0.001,0.007,0.007,0.0,88.0,360.0,84.66,0.0,100409.02,1,0
0.1,BOOST,56.0,95.0,317.03,317.0,0.03,56.0,95.0,317.03,0.0,-0.0,0.0,0.062,0.675,0.677,0.0,87.98,360.0,84.74,0.03,100409.02,1,0
0.2,BOOST,56.0000001,95.0,317.13,317.0,0.13,56.0000001,95.0,317.13,0.0,-0.0,0.002,0.125,1.35,1.356,360.0,87.93,0.0,84.72,0.14,100409.01,1,0
0.3,BOOST,56.0000004,95.0,317.44,317.0,0.44,55.9999885,95.0000354,322.39,2.58,4.95,0.013,0.309,3.402,3.416,0.0,87.85,0.0,84.8,0.44,100410.3,1,0
0.4,BOOST,56.0000007,95.0,317.81,317.0,0.81,55.9999888,95.0000355,322.77,2.58,4.95,0.015,0.377,4.08,4.097,360.0,87.73,360.0,84.72,0.82,100410.27,1,0
0.5,BOOST,55.9999968,95.0000014,318.02,317.0,1.02,55.999964,95.0000434,319.06,4.5,1.04,0.839,-4.271,2.357,4.95,0.0,87.58,0.0,28.44,1.3,100413.03,1,0
0.6,BOOST,55.999993,95.0000027,318.29,317.0,1.29,55.9999601,95.0000448,319.33,4.5,1.04,0.841,-4.196,3.037,5.247,0.0,87.39,0.0,35.37,1.81,100413.45,1,0
0.7,BOOST,55.9999931,94.9999987,318.93,317.0,1.93,55.9999788,95.0000051,322.41,1.64,3.48,-2.567,0.169,6.829,7.297,0.0,87.18,360.0,69.36,2.51,100411.37,1,0
0.8,BOOST,55.9999933,94.9999945,319.65,317.0,2.65,55.999979,95.000001,323.13,1.64,3.48,-2.565,0.258,7.511,7.941,360.0,86.93,0.0,71.06,3.27,100411.35,1,0
0.9,BOOST,55.9999958,94.9999874,320.43,317.0,3.43,56.0000019,94.9999564,324.02,2.05,3.59,-4.479,2.85,8.146,9.723,0.0,86.66,360.0,56.91,4.21,100408.8,1,0
1.0,BOOST,55.9999984,94.9999802,321.28,317.0,4.28,56.0000045,94.9999492,324.87,2.05,3.59,-4.477,2.954,8.83,10.331,360.0,86.35,360.0,58.72,5.21,100408.51,1,0
1.1,BOOST,55.999998,94.9999718,321.91,317.0,4.91,55.9999693,94.9999114,321.91,4.94,-0.0,-5.249,-0.437,6.62,8.46,360.0,86.02,360.0,51.49,6.04,100412.43,1,1
1.2,BOOST,55.9999977,94.9999634,322.61,317.0,5.61,55.999969,94.999903,322.6,4.94,-0.0,-5.248,-0.313,7.304,8.999,360.0,85.65,360.0,54.25,6.91,100412.47,1,1
1.3,BOOST,55.9999994,94.9999597,323.58,317.0,6.58,55.9999967,94.9999523,325.97,0.55,2.4,-2.281,2.055,10.078,10.536,360.0,85.26,0.0,73.06,7.93,100409.39,1,1
1.4,BOOST,56.0000013,94.999956,324.62,317.0,7.62,55.9999986,94.9999487,327.02,0.55,2.4,-2.28,2.202,10.762,11.219,0.0,84.84,360.0,73.59,9.02,100409.17,1,1
1.5,BOOST,56.0000036,94.9999532,325.79,317.0,8.79,56.0000059,94.9999544,329.45,0.27,3.66,-1.707,2.696,12.039,12.455,0.0,84.4,360.0,75.15,10.23,100408.36,1,1
1.6,BOOST,56.0000061,94.9999505,327.03,317.0,10.03,56.0000084,94.9999517,330.68,0.27,3.66,-1.705,2.869,12.723,13.153,360.0,83.92,360.0,75.3,11.51,100408.08,1,1
1.7,BOOST,56.0000087,94.9999464,328.23,317.0,11.23,56.0000084,94.9999131,330.62,2.07,2.39,-2.601,2.947,12.346,12.957,0.0,83.43,0.0,72.34,12.77,100408.08,1,1
1.8,BOOST,56.0000114,94.9999422,329.5,317.0,12.5,56.0000112,94.999909,331.89,2.07,2.39,-2.599,3.151,13.029,13.654,360.0,82.9,0.0,72.59,14.1,100407.78,1,1
1.9,BOOST,56.0000147,94.9999391,330.86,317.0,13.86,56.0000212,94.9999232,333.93,1.23,3.07,-1.891,3.795,14.014,14.641,360.0,82.35,360.0,73.17,15.53,100406.66,1,1
2.0,BOOST,56.0000183,94.9999361,332.3,317.0,15.3,56.0000247,94.9999202,335.37,1.23,3.07,-1.889,4.031,14.696,15.355,0.0,81.78,360.0,73.15,17.03,100406.27,1,1
2.1,BOOST,56.0000224,94.9999339,333.71,317.0,16.71,56.0000355,94.9999341,334.7,1.46,0.98,-1.34,4.697,14.474,15.276,360.0,81.19,0.0,71.35,18.52,100405.07,1,1
2.2,BOOST,56.0000267,94.9999318,335.2,317.0,18.2,56.0000398,94.999932,336.18,1.46,0.98,-1.339,4.966,15.153,16.002,0.0,80.57,0.0,71.25,20.09,100404.59,1,1
2.3,BOOST,56.0000318,94.99993,336.86,317.0,19.86,56.0000551,94.9999347,340.64,2.61,3.78,-1.139,5.808,17.034,18.033,360.0,79.93,360.0,70.84,21.85,100402.9,1,1
2.4,BOOST,56.0000371,94.9999281,338.6,317.0,21.6,56.0000604,94.9999328,342.38,2.61,3.78,-1.139,6.115,17.708,18.768,0.0,79.27,360.0,70.65,23.69,100402.3,1,1
2.5,BOOST,56.0000431,94.9999263,340.48,317.0,23.48,56.0000723,94.9999265,346.37,3.25,5.89,-1.152,6.833,19.142,20.358,360.0,78.59,360.0,70.1,25.69,100400.98,1,1
2.6,BOOST,56.0000494,94.9999245,342.43,317.0,25.43,56.0000786,94.9999247,348.32,3.25,5.89,-1.15,7.18,19.811,21.103,360.0,77.89,360.0,69.84,27.76,100400.28,1,1
2.7,BOOST,56.0000562,94.9999226,344.54,317.0,27.54,56.000086,94.9999173,353.46,3.33,8.92,-1.178,7.791,21.453,22.854,0.0,77.16,0.0,69.83,30.01,100399.46,1,1
2.8,BOOST,56.0000634,94.9999207,346.72,317.0,29.72,56.0000932,94.9999154,355.64,3.33,8.92,-1.176,8.18,22.112,23.606,0.0,76.42,0.0,69.51,32.33,100398.66,1,1
2.9,BOOST,56.0000711,94.999919,349.04,317.0,32.04,56.0000975,94.9999185,360.84,2.94,11.8,-1.024,8.767,23.575,25.174,360.0,75.66,0.0,69.47,34.81,100398.18,1,1
3.0,BOOST,56.0000791,94.9999174,351.43,317.0,34.43,56.0001055,94.9999169,363.23,2.94,11.8,-1.024,9.199,24.226,25.934,360.0,74.88,0.0,69.09,37.37,100397.28,1,1
3.1,BOOST,56.0000882,94.9999156,353.72,317.0,36.72,56.0001266,94.9999055,359.88,4.32,6.16,-1.122,10.342,23.205,25.431,0.0,74.09,360.0,65.85,39.87,100394.94,1,1
3.2,BOOST,56.0000977,94.9999138,356.07,317.0,39.07,56.0001361,94.9999037,362.24,4.32,6.16,-1.121,10.82,23.846,26.21,0.0,73.27,0.0,65.48,42.46,100393.89,1,1
3.3,BOOST,56.0001082,94.9999125,358.58,317.0,41.58,56.0001539,94.9999203,368.49,5.12,9.91,-0.794,11.908,25.458,28.117,360.0,72.44,360.0,64.88,45.23,100391.9,1,1
3.4,BOOST,56.0001191,94.9999112,361.16,317.0,44.16,56.0001649,94.999919,371.07,5.12,9.91,-0.792,12.434,26.085,28.908,360.0,71.6,0.0,64.47,48.08,100390.69,1,1
3.5,BOOST,56.0001311,94.9999097,363.9,317.0,46.9,56.0001846,94.9999038,378.06,5.97,14.16,-0.944,13.62,27.694,30.876,0.0,70.74,360.0,63.76,51.12,100388.5,1,1
3.6,BOOST,56.0001436,94.9999082,366.7,318.0,48.7,56.0001971,94.9999023,380.86,5.97,14.16,-0.943,14.193,28.306,31.679,0.0,69.86,360.0,63.32,54.25,100387.11,1,1
3.7,BOOST,56.0001572,94.9999072,369.64,318.0,51.64,56.0002202,94.9999209,387.81,7.06,18.17,-0.636,15.508,29.725,33.534,0.0,68.98,0.0,62.43,57.56,100384.54,1,1
3.8,BOOST,56.0001714,94.9999062,372.64,318.0,54.64,56.0002344,94.9999199,390.81,7.06,18.17,-0.634,16.131,30.319,34.349,0.0,68.07,360.0,61.97,60.96,100382.96,1,1
3.9,BOOST,56.0001868,94.999905,375.76,318.0,57.76,56.000257,94.9999067,397.34,7.82,21.58,-0.753,17.486,31.496,36.033,0.0,67.16,0.0,60.94,64.52,100380.44,1,1
4.0,BOOST,56.0002028,94.9999038,378.94,318.0,60.94,56.000273,94.9999055,400.52,7.82,21.58,-0.752,18.159,32.072,36.863,0.0,66.23,0.0,60.46,68.16,100378.66,1,1
4.1,BOOST,56.0002201,94.9999026,381.99,318.0,63.99,56.0002998,94.9999058,395.01,8.87,13.03,-0.702,19.658,30.71,36.47,0.0,65.29,0.0,57.36,71.77,100375.68,1,1
4.2,BOOST,56.0002381,94.9999015,385.09,318.0,67.09,56.0003178,94.9999047,398.11,8.87,13.03,-0.701,20.383,31.264,37.328,0.0,64.34,360.0,56.88,75.46,100373.68,1,1
4.3,BOOST,56.0002576,94.9999005,388.32,318.0,70.32,56.0003518,94.9999073,406.28,10.49,17.96,-0.63,22.08,32.644,39.416,360.0,63.38,360.0,55.92,79.36,100369.9,1,1
4.4,BOOST,56.0002778,94.9998995,391.61,318.0,73.61,56.0003719,94.9999063,409.58,10.49,17.96,-0.628,22.856,33.174,40.29,360.0,62.41,0.0,55.42,83.34,100367.66,1,1
4.5,BOOST,56.0002996,94.9998983,395.03,318.0,77.03,56.000415,94.9998916,418.17,12.85,23.13,-0.75,24.77,34.47,42.454,360.0,61.43,0.0,54.29,87.54,100362.87,1,1
4.6,BOOST,56.0003223,94.9998971,398.5,318.0,80.5,56.0004376,94.9998904,421.64,12.85,23.13,-0.749,25.597,34.973,43.346,0.0,60.44,0.0,53.79,91.83,100360.36,1,1
4.7,BOOST,56.0003465,94.9998959,402.09,318.0,84.09,56.0004753,94.9998846,430.43,14.36,28.34,-0.767,27.446,36.145,45.391,360.0,59.45,0.0,52.78,96.32,100356.17,1,1
4.8,BOOST,56.0003715,94.9998946,405.73,318.0,87.73,56.0005003,94.9998834,434.07,14.36,28.34,-0.765,28.325,36.619,46.301,0.0,58.44,0.0,52.27,100.91,100353.39,1,1
4.9,BOOST,56.0003985,94.9998935,409.47,318.0,91.47,56.0005531,94.9998845,442.56,17.23,33.09,-0.712,30.489,37.589,48.404,0.0,57.43,360.0,50.95,105.7,100347.51,1,1
5.0,BOOST,56.0004263,94.9998923,413.25,318.0,95.25,56.0005809,94.9998834,446.34,17.23,33.09,-0.711,31.417,38.029,49.333,0.0,56.41,0.0,50.43,110.59,100344.42,1,1
5.1,BOOST,56.000456,94.9998912,416.86,318.0,98.86,56.0006295,94.999881,438.86,19.33,22.0,-0.695,33.533,36.33,49.445,0.0,55.39,0.0,47.29,115.49,100339.02,1,1
5.2,BOOST,56.0004865,94.9998901,420.51,318.0,102.51,56.0006601,94.9998799,442.51,19.33,22.0,-0.694,34.513,36.74,50.413,360.0,54.36,0.0,46.78,120.48,100335.62,1,1
5.3,BOOST,56.0005192,94.999889,424.27,318.0,106.27,56.000721,94.999878,452.46,22.48,28.19,-0.676,36.87,37.775,52.79,360.0,53.33,360.0,45.69,125.71,100328.85,1,1
5.4,BOOST,56.0005528,94.9998879,428.07,318.0,110.07,56.0007546,94.9998769,456.26,22.48,28.19,-0.675,37.899,38.148,53.778,360.0,52.29,0.0,45.18,131.04,100325.11,1,1
5.5,BOOST,56.0005885,94.9998869,431.95,318.0,113.95,56.0008211,94.9998763,465.76,25.91,33.81,-0.65,40.368,38.956,56.104,0.0,51.25,0.0,43.98,136.6,100317.71,1,1
5.6,BOOST,56.0006253,94.9998859,435.86,318.0,117.86,56.0008579,94.9998753,469.67,25.91,33.81,-0.648,41.445,39.291,57.113,0.0,50.2,0.0,43.47,142.26,100313.63,1,1
5.7,BOOST,56.0006642,94.9998848,439.84,318.0,121.84,56.0009273,94.9998692,479.38,29.3,39.54,-0.669,43.975,39.977,59.434,0.0,49.16,360.0,42.27,148.15,100305.91,1,1
5.8,BOOST,56.0007042,94.9998837,443.85,319.0,124.85,56.0009673,94.9998681,483.39,29.3,39.54,-0.667,45.099,40.271,60.466,360.0,48.11,0.0,41.76,154.15,100301.46,1,1
5.9,BOOST,56.0007467,94.9998826,447.91,319.0,128.91,56.0010508,94.999862,492.56,33.89,44.65,-0.687,47.853,40.736,62.848,360.0,47.06,360.0,40.4,160.38,100292.17,1,1
6.0,BOOST,56.0007902,94.9998815,452.0,319.0,133.0,56.0010943,94.9998609,496.65,33.89,44.65,-0.687,49.022,40.987,63.903,0.0,46.01,0.0,39.9,166.72,100287.33,1,1
6.1,BOOST,56.0008362,94.9998805,455.89,319.0,136.89,56.0011802,94.9998656,488.13,38.31,32.24,-0.621,51.813,39.001,64.854,360.0,44.96,360.0,36.97,173.15,100277.79,1,1
6.2,BOOST,56.0008833,94.9998795,459.8,319.0,140.8,56.0012273,94.9998646,492.04,38.31,32.24,-0.62,53.025,39.209,65.95,0.0,43.91,0.0,36.48,179.69,100272.55,1,1
6.3,BOOST,56.000933,94.9998786,463.75,319.0,144.75,56.0013262,94.999866,502.23,43.79,38.48,-0.583,55.999,39.623,68.602,360.0,42.86,360.0,35.28,186.49,100261.55,1,1
6.4,BOOST,56.0009838,94.9998776,467.72,320.0,147.72,56.0013771,94.9998651,506.2,43.79,38.48,-0.582,57.253,39.785,69.721,360.0,41.82,360.0,34.79,193.41,100255.89,1,1
6.5,BOOST,56.0010373,94.9998767,471.72,320.0,151.72,56.0014738,94.9998606,516.18,48.61,44.46,-0.59,60.188,40.022,72.282,0.0,40.77,360.0,33.62,200.58,100245.14,1,1
6.6,BOOST,56.0010919,94.9998758,475.73,320.0,155.73,56.0015284,94.9998596,520.19,48.61,44.46,-0.588,61.48,40.138,73.425,360.0,39.73,360.0,33.14,207.86,100239.07,1,1
6.7,BOOST,56.0011493,94.9998749,479.74,320.0,159.74,56.0016375,94.9998621,529.66,54.35,49.92,-0.544,64.567,40.17,76.045,360.0,38.69,0.0,31.89,215.41,100226.94,1,1
6.8,BOOST,56.0012079,94.999874,483.76,320.0,163.76,56.001696,94.9998613,533.68,54.35,49.92,-0.543,65.896,40.236,77.211,360.0,37.66,360.0,31.41,223.07,100220.43,1,1
6.9,BOOST,56.0012693,94.9998732,487.77,320.0,167.77,56.0018127,94.9998653,543.16,60.5,55.39,-0.491,69.062,40.132,79.877,0.0,36.63,0.0,30.16,231.0,100207.46,1,1
7.0,BOOST,56.001332,94.9998724,491.79,320.0,171.79,56.0018753,94.9998645,547.18,60.5,55.39,-0.49,70.425,40.148,81.067,0.0,35.61,360.0,29.69,239.05,100200.49,1,1
7.1,BOOST,56.0013974,94.9998717,495.56,320.0,175.56,56.0019943,94.9998651,536.87,66.45,41.31,-0.466,73.596,37.704,82.694,360.0,34.59,360.0,27.13,247.26,100187.27,1,1
7.2,BOOST,56.0014641,94.9998709,499.33,320.0,179.33,56.002061,94.9998644,540.64,66.45,41.31,-0.464,74.993,37.672,83.924,360.0,33.58,0.0,26.67,255.59,100179.85,1,1
7.3,BOOST,56.0015338,94.9998702,503.07,320.0,183.07,56.0021898,94.9998645,550.26,73.05,47.19,-0.445,78.256,37.393,86.733,0.0,32.57,360.0,25.54,264.2,100165.52,1,1
7.4,BOOST,56.0016047,94.9998695,506.81,320.0,186.81,56.0022608,94.9998638,554.0,73.05,47.19,-0.444,79.681,37.31,87.985,0.0,31.58,0.0,25.09,272.94,100157.63,1,1
7.5,BOOST,56.0016786,94.9998689,510.5,320.0,190.5,56.0023981,94.9998686,563.24,80.11,52.74,-0.395,83.006,36.858,90.822,360.0,30.59,0.0,23.94,281.95,100142.37,1,1
7.6,BOOST,56.0017538,94.9998682,514.18,320.0,194.18,56.0024733,94.999868,566.92,80.11,52.74,-0.393,84.457,36.724,92.097,0.0,29.61,360.0,23.5,291.1,100134.01,1,1
7.7,BOOST,56.001832,94.9998676,517.79,322.0,195.79,56.0026173,94.9998609,575.5,87.44,57.7,-0.42,87.817,36.077,94.94,0.0,28.64,360.0,22.33,300.53,100117.98,1,1
7.8,BOOST,56.0019115,94.9998669,521.39,322.0,199.39,56.0026969,94.9998602,579.1,87.44,57.7,-0.418,89.293,35.89,96.236,360.0,27.68,360.0,21.9,310.09,100109.14,1,1
7.9,BOOST,56.0019941,94.9998663,524.91,322.0,202.91,56.0028498,94.9998622,587.15,95.27,62.24,-0.387,92.704,35.068,99.116,0.0,26.73,360.0,20.72,319.93,100092.14,1,1
8.0,BOOST,56.002078,94.9998657,528.41,322.0,206.41,56.0029337,94.9998616,590.64,95.27,62.24,-0.385,94.201,34.83,100.434,360.0,25.79,360.0,20.29,329.91,100082.81,1,1
8.1,BOOST,56.002165,94.999865,531.62,323.0,208.62,56.0030926,94.9998577,579.01,103.28,47.39,-0.392,97.623,31.985,102.73,0.0,24.86,360.0,18.14,340.12,100065.14,1,1
8.2,BOOST,56.0022534,94.9998644,534.81,323.0,211.81,56.0031809,94.9998571,582.19,103.28,47.39,-0.39,99.137,31.699,104.082,360.0,23.94,0.0,17.73,350.46,100055.32,1,1
8.3,BOOST,56.0023448,94.9998638,537.89,323.0,214.89,56.0033474,94.9998522,589.96,111.63,52.07,-0.402,102.579,30.689,107.072,360.0,23.04,360.0,16.66,361.1,100036.8,1,1
8.4,BOOST,56.0024376,94.9998631,540.94,324.0,216.94,56.0034402,94.9998515,593.01,111.63,52.07,-0.4,104.108,30.354,108.444,360.0,22.15,360.0,16.25,371.87,100026.48,1,1
8.5,BOOST,56.0025336,94.9998624,543.88,324.0,219.88,56.0036196,94.9998449,600.04,120.92,56.16,-0.42,107.617,29.169,111.501,360.0,21.28,360.0,15.17,382.95,100006.54,1,1
8.6,BOOST,56.0026309,94.9998618,546.78,324.0,222.78,56.0037169,94.9998443,602.94,120.92,56.16,-0.418,109.16,28.785,112.892,360.0,20.42,0.0,14.77,394.17,99995.72,1,1
8.7,BOOST,56.0027314,94.9998611,549.54,327.0,222.54,56.003899,94.9998436,609.24,130.01,59.7,-0.406,112.623,27.436,115.917,0.0,19.57,0.0,13.69,405.69,99975.47,1,1
8.8,BOOST,56.0028332,94.9998605,552.26,326.0,226.26,56.0040009,94.999843,611.96,130.01,59.7,-0.405,114.175,27.005,117.326,0.0,18.74,360.0,13.31,417.36,99964.14,1,1
8.9,BOOST,56.0029382,94.9998598,554.84,329.0,225.84,56.0041929,94.9998403,617.6,139.71,62.76,-0.405,117.658,25.51,120.392,0.0,17.93,360.0,12.23,429.32,99942.79,1,1
9.0,BOOST,56.0030445,94.9998592,557.37,329.0,228.37,56.0042992,94.9998397,620.13,139.71,62.76,-0.403,119.219,25.033,121.819,0.0,17.13,0.0,11.86,441.43,99930.97,1,1
9.1,BOOST,56.003154,94.9998586,559.73,329.0,230.73,56.0044967,94.9998414,624.91,149.5,65.17,-0.379,122.676,23.384,124.885,360.0,16.35,360.0,10.79,453.85,99909.01,1,0
9.2,BOOST,56.0032649,94.999858,562.04,331.0,231.04,56.0046075,94.9998408,627.22,149.5,65.17,-0.377,124.241,22.862,126.328,0.0,15.59,0.0,10.43,466.41,99896.68,1,0
9.3,BOOST,56.0033788,94.9998574,564.18,331.0,233.18,56.0048142,94.9998406,631.0,159.81,66.82,-0.362,127.699,21.059,129.424,360.0,14.85,0.0,9.36,479.28,99873.71,1,0
9.4,BOOST,56.0034942,94.9998568,566.26,333.0,233.26,56.0049296,94.99984,633.07,159.81,66.82,-0.36,129.268,20.496,130.884,360.0,14.13,0.0,9.01,492.3,99860.88,1,0
9.5,BOOST,56.0036127,94.9998562,568.14,333.0,235.14,56.0051449,94.9998401,636.19,170.6,68.05,-0.344,132.717,18.58,134.012,360.0,13.43,360.0,7.97,505.62,99836.93,1,0
9.6,BOOST,56.0037326,94.9998557,569.97,333.0,236.97,56.0052648,94.9998396,638.02,170.6,68.05,-0.343,134.287,17.977,135.485,360.0,12.74,360.0,7.62,519.1,99823.6,1,0
9.7,BOOST,56.0038556,94.9998551,571.6,333.0,238.6,56.0054921,94.9998339,640.28,182.21,68.68,-0.359,137.749,15.942,138.669,360.0,12.08,360.0,6.6,532.89,99798.33,1,0
9.8,BOOST,56.00398,94.9998545,573.16,333.0,240.16,56.0056165,94.9998333,641.84,182.21,68.68,-0.357,139.316,15.303,140.155,0.0,11.44,0.0,6.27,546.83,99784.49,1,0
9.9,BOOST,56.0041075,94.999854,574.51,332.0,242.51,56.00585,94.999835,643.36,194.01,68.85,-0.336,142.734,13.169,143.341,0.0,10.82,0.0,5.27,561.09,99758.53,1,0
10.0,BOOST,56.0042364,94.9998535,575.8,332.0,243.8,56.0059789,94.9998345,644.65,194.01,68.85,-0.335,144.299,12.495,144.84,360.0,10.23,360.0,4.95,575.5,99744.2,1,0
10.1,BOOST,56.0043683,94.999853,576.86,332.0,244.86,56.0062187,94.9998365,645.02,206.03,68.17,-0.312,147.678,10.234,148.032,0.0,9.66,360.0,3.96,590.22,99717.53,1,0
10.2,BOOST,56.0045016,94.9998525,577.85,332.0,245.85,56.006352,94.999836,646.01,206.03,68.17,-0.31,149.238,9.529,149.542,0.0,9.11,0.0,3.65,605.1,99702.71,1,0
10.3,BOOST,56.0046379,94.999852,578.6,331.0,247.6,56.0065971,94.9998389,645.17,218.14,66.57,-0.284,152.555,7.164,152.724,0.0,8.58,360.0,2.69,620.3,99675.45,1,0
10.4,BOOST,56.0047756,94.9998515,579.28,331.0,248.28,56.0067348,94.9998385,645.85,218.14,66.57,-0.284,154.11,6.432,154.244,360.0,8.09,360.0,2.39,635.65,99660.14,1,0
10.5,BOOST,56.0049163,94.9998511,579.72,329.0,250.72,56.0069846,94.9998406,644.58,230.29,64.86,-0.265,157.364,4.027,157.415,0.0,7.61,360.0,1.47,651.31,99632.37,1,0
10.6,BOOST,56.0050583,94.9998507,580.09,329.0,251.09,56.0071266,94.9998402,644.95,230.29,64.86,-0.263,158.909,3.269,158.943,360.0,7.17,0.0,1.18,667.13,99616.58,1,0
10.7,BOOST,56.0052032,94.9998503,580.21,328.0,252.21,56.0073888,94.9998406,642.46,243.35,62.25,-0.25,162.16,0.777,162.162,0.0,6.75,0.0,0.27,683.27,99587.42,1,0
10.8,BOOST,56.0053495,94.9998499,580.25,328.0,252.25,56.0075352,94.9998402,642.5,243.35,62.25,-0.248,163.697,-0.001,163.697,0.0,6.36,360.0,-0.0,699.56,99571.15,1,0
10.9,BOOST,56.0054987,94.9998495,580.04,329.0,251.04,56.0078007,94.9998432,639.26,256.31,59.23,-0.223,166.869,-2.534,166.888,360.0,5.99,0.0,-0.87,716.17,99541.63,1,0
11.0,BOOST,56.0056492,94.9998492,579.74,329.0,250.74,56.0079512,94.9998429,638.97,256.31,59.23,-0.222,168.395,-3.329,168.428,360.0,5.66,360.0,-1.13,732.94,99524.89,1,0
11.1,BOOST,56.0058026,94.9998488,579.2,330.0,249.2,56.0082224,94.9998434,634.93,269.43,55.73,-0.21,171.506,-5.894,171.607,360.0,5.35,0.0,-1.97,750.02,99494.73,1,0
11.2,BOOST,56.0059573,94.9998485,578.57,330.0,248.57,56.0083771,94.999843,634.3,269.43,55.73,-0.209,173.021,-6.702,173.151,0.0,5.07,360.0,-2.22,767.26,99477.53,1,0
11.3,BOOST,56.0061147,94.9998482,577.68,330.0,247.68,56.0086567,94.9998428,629.53,283.03,51.85,-0.201,176.092,-9.284,176.337,0.0,4.83,0.0,-3.02,784.81,99446.44,1,0
11.4,BOOST,56.0062736,94.9998479,576.72,328.0,248.72,56.0088155,94.9998425,628.57,283.03,51.85,-0.199,177.595,-10.102,177.882,360.0,4.61,360.0,-3.26,802.52,99428.78,1,0
11.5,BOOST,56.0064351,94.9998475,575.49,328.0,247.49,56.0090999,94.9998399,622.82,296.7,47.33,-0.202,180.597,-12.704,181.044,360.0,4.43,360.0,-4.02,820.55,99397.16,1,0
11.6,BOOST,56.0065979,94.9998472,574.18,328.0,246.18,56.0092627,94.9998396,621.51,296.7,47.33,-0.2,182.087,-13.526,182.589,0.0,4.28,360.0,-4.25,838.73,99379.05,1,0
11.7,BOOST,56.0067634,94.9998469,572.61,328.0,244.61,56.0095564,94.9998404,615.0,310.98,42.39,-0.187,185.055,-16.121,185.756,360.0,4.16,0.0,-4.98,857.22,99346.39,1,0
11.8,BOOST,56.0069303,94.9998466,570.96,329.0,241.96,56.0097233,94.9998401,613.35,310.98,42.39,-0.186,186.531,-16.943,187.299,360.0,4.07,0.0,-5.19,875.88,99327.84,1,0
11.9,BOOST,56.0070998,94.9998463,569.05,331.0,238.05,56.0100225,94.9998401,605.73,325.42,36.68,-0.176,189.436,-19.541,190.441,360.0,4.02,360.0,-5.89,894.84,99294.57,1,0
12.0,CRUISE,56.0072706,94.9998461,567.05,331.0,236.05,56.0101933,94.9998398,603.74,325.42,36.68,-0.173,190.898,-20.36,191.981,360.0,4.0,360.0,-6.09,913.96,99275.58,1,0
