time_s,stage,true_lat,true_lon,true_alt_m,ground_alt_m,agl_m,est_lat,est_lon,est_alt_m,pos_error_m,alt_error_m,vel_east_ms,vel_north_ms,vel_up_ms,ground_speed_ms,roll_deg,pitch_deg,yaw_deg,flight_path_angle_deg,distance_traveled_m,distance_to_target_m,gps_valid,tercom_active
0.002,BOOST,56.0,95.0,317.0,317.0,0.0,56.0,95.0,317.0,0.0,0.0,0.0,0.001,0.014,0.014,360.0,88.0,0.0,84.88,0.0,100409.02,1,0
0.1,BOOST,56.0,95.0,317.03,317.0,0.03,56.0,95.0,317.03,0.0,0.0,0.003,0.056,0.678,0.681,360.0,87.98,0.0,85.27,0.03,100409.02,1,0
0.2,BOOST,56.0000001,95.0,317.14,317.0,0.14,56.0000001,95.0,317.14,0.0,0.0,0.004,0.114,1.358,1.363,360.0,87.93,0.0,85.2,0.14,100409.01,1,0
0.3,BOOST,56.0000002,95.0,317.3,317.0,0.3,56.0000345,94.9999919,312.67,3.85,-4.63,0.004,0.181,2.03,2.038,360.0,87.85,0.0,84.9,0.31,100405.18,1,0
0.4,BOOST,56.0000004,95.0,317.54,317.0,0.54,56.0000347,94.9999919,312.91,3.85,-4.63,0.007,0.242,2.711,2.722,0.0,87.73,0.0,84.89,0.55,100405.16,1,0
0.5,BOOST,55.9999938,95.0000203,317.92,317.0,0.92,55.9999999,95.0000951,314.72,4.72,-3.19,12.938,-7.536,4.115,15.528,0.0,87.58,0.0,15.37,2.07,100409.03,1,0
0.6,BOOST,55.999987,95.0000411,318.36,317.0,1.36,55.9999932,95.0001159,315.17,4.72,-3.19,12.939,-7.463,4.798,15.689,360.0,87.39,360.0,17.81,3.63,100409.78,1,0
0.7,BOOST,55.9999812,95.0000495,319.21,317.0,2.21,55.9999907,95.0000738,319.14,1.85,-0.06,5.067,-6.442,8.842,12.056,0.0,87.18,0.0,47.17,4.82,100410.05,1,0
0.8,BOOST,55.9999754,95.0000576,320.13,317.0,3.13,55.999985,95.0000819,320.06,1.85,-0.06,5.068,-6.357,9.526,12.524,360.0,86.93,360.0,49.52,6.05,100410.69,1,0
0.9,BOOST,55.9999652,95.0000665,321.12,317.0,4.12,55.9999516,95.000095,321.1,2.34,-0.02,5.59,-11.418,10.268,16.342,360.0,86.66,360.0,38.93,7.66,100414.4,1,0
1.0,BOOST,55.999955,95.0000755,322.18,317.0,5.18,55.9999414,95.000104,322.16,2.34,-0.02,5.591,-11.317,10.953,16.712,0.0,86.35,360.0,40.95,9.31,100415.54,1,0
1.1,BOOST,55.9999475,95.0000875,323.26,317.0,6.26,55.9999502,95.0001352,322.82,2.99,-0.43,7.526,-8.268,11.108,15.76,0.0,86.02,360.0,44.81,10.87,100414.55,1,1
1.2,BOOST,55.9999401,95.0000995,324.4,317.0,7.4,55.9999429,95.0001472,323.97,2.99,-0.43,7.527,-8.148,11.795,16.191,0.0,85.66,0.0,46.76,12.47,100415.37,1,1
1.3,BOOST,55.9999318,95.0001097,325.65,317.0,8.65,55.9999266,95.0001432,325.46,2.17,-0.2,6.341,-9.2,12.868,17.042,360.0,85.26,0.0,49.03,14.15,100417.18,1,1
1.4,BOOST,55.9999236,95.0001199,326.97,317.0,9.97,55.9999184,95.0001534,326.78,2.17,-0.2,6.342,-9.055,13.555,17.491,360.0,84.85,0.0,50.8,15.88,100418.09,1,1
1.5,BOOST,55.9999153,95.000128,328.51,317.0,11.51,55.9999077,95.0001429,329.37,1.25,0.86,5.018,-9.199,15.748,18.916,0.0,84.4,0.0,56.36,17.74,100419.28,1,1
1.6,BOOST,55.9999071,95.000136,330.12,317.0,13.12,55.9998995,95.0001509,330.98,1.25,0.86,5.019,-9.028,16.435,19.411,0.0,83.93,0.0,57.85,19.66,100420.19,1,1
1.7,BOOST,55.9998995,95.0001435,331.68,317.0,14.68,55.9998958,95.0001524,331.49,0.69,-0.19,4.651,-8.411,15.873,18.556,360.0,83.43,360.0,58.8,21.49,100420.6,1,1
1.8,BOOST,55.999892,95.000151,333.3,317.0,16.3,55.9998883,95.0001599,333.11,0.69,-0.19,4.654,-8.212,16.558,19.059,0.0,82.91,0.0,60.31,23.37,100421.43,1,1
1.9,BOOST,55.9998832,95.0001591,335.02,317.0,18.02,55.9998624,95.0001766,335.19,2.56,0.17,5.119,-9.676,17.601,20.727,0.0,82.36,0.0,58.12,25.42,100424.32,1,1
2.0,BOOST,55.9998747,95.0001673,336.82,317.0,19.82,55.9998538,95.0001848,336.98,2.56,0.17,5.119,-9.445,18.283,21.205,360.0,81.79,360.0,59.56,27.52,100425.27,1,1
2.1,BOOST,55.9998662,95.0001745,338.78,317.0,21.78,55.9998447,95.0001784,340.19,2.41,1.41,4.456,-9.256,20.038,22.517,360.0,81.19,360.0,62.86,29.74,100426.29,1,1
2.2,BOOST,55.999858,95.0001817,340.82,315.0,25.82,55.9998365,95.0001856,342.23,2.41,1.41,4.455,-8.986,20.717,23.017,0.0,80.58,360.0,64.17,32.02,100427.2,1,1
2.3,BOOST,55.9998505,95.0001873,342.93,315.0,27.93,55.9998356,95.0001688,344.37,2.03,1.44,3.462,-8.183,21.423,23.192,360.0,79.94,360.0,67.47,34.32,100427.3,1,1
2.4,BOOST,55.9998433,95.0001928,345.11,315.0,30.11,55.9998283,95.0001743,346.55,2.03,1.44,3.462,-7.879,22.098,23.715,0.0,79.28,0.0,68.72,36.66,100428.11,1,1
2.5,BOOST,55.9998364,95.0001991,347.31,315.0,32.31,55.999822,95.000192,348.15,1.66,0.84,3.928,-7.513,22.329,23.885,360.0,78.6,0.0,69.21,39.03,100428.81,1,1
2.6,BOOST,55.9998298,95.0002054,349.57,315.0,34.57,55.9998154,95.0001983,350.42,1.66,0.84,3.928,-7.168,22.999,24.408,0.0,77.89,360.0,70.44,41.44,100429.54,1,1
2.7,BOOST,55.9998242,95.0002111,351.9,315.0,36.9,55.9998207,95.0001944,352.61,1.11,0.71,3.569,-6.076,23.577,24.607,0.0,77.17,360.0,73.36,43.88,100428.96,1,1
2.8,BOOST,55.9998189,95.0002168,354.29,315.0,39.29,55.9998154,95.0002002,355.0,1.11,0.71,3.571,-5.689,24.24,25.154,0.0,76.43,360.0,74.51,46.37,100429.55,1,1
2.9,BOOST,55.9998137,95.0002232,356.75,315.0,41.75,55.9998046,95.0002185,357.53,1.05,0.78,3.988,-5.624,24.94,25.876,360.0,75.67,0.0,74.55,48.93,100430.74,1,1
3.0,BOOST,55.9998088,95.0002296,359.28,315.0,44.28,55.9997998,95.0002249,360.06,1.05,0.78,3.988,-5.193,25.593,26.418,360.0,74.89,360.0,75.65,51.54,100431.29,1,1
3.1,BOOST,55.9998042,95.000236,361.84,315.0,46.84,55.9997916,95.0002311,362.13,1.43,0.29,3.984,-4.941,25.97,26.734,0.0,74.1,0.0,76.27,54.19,100432.19,1,1
3.2,BOOST,55.9998,95.0002424,364.47,315.0,49.47,55.9997874,95.0002375,364.76,1.43,0.29,3.985,-4.463,26.612,27.277,0.0,73.28,0.0,77.33,56.89,100432.66,1,1
3.3,BOOST,55.9997962,95.0002498,367.17,315.0,52.17,55.9997842,95.0002675,367.56,1.73,0.39,4.666,-3.934,27.302,27.975,360.0,72.45,0.0,77.4,59.66,100433.02,1,1
3.4,BOOST,55.9997929,95.0002573,369.93,315.0,54.93,55.9997809,95.0002749,370.32,1.73,0.39,4.668,-3.411,27.932,28.524,360.0,71.61,360.0,78.31,62.49,100433.39,1,1
3.5,BOOST,55.99979,95.0002647,372.75,315.0,57.75,55.9997769,95.0002814,372.91,1.8,0.16,4.642,-2.918,28.443,28.967,360.0,70.75,0.0,79.09,65.36,100433.83,1,1
3.6,BOOST,55.9997877,95.0002722,375.62,315.0,60.62,55.9997745,95.0002888,375.78,1.8,0.16,4.643,-2.344,29.06,29.522,360.0,69.87,360.0,79.85,68.28,100434.09,1,1
3.7,BOOST,55.9997859,95.0002792,378.56,315.0,63.56,55.9997748,95.0002858,378.67,1.3,0.11,4.377,-1.647,29.645,30.011,360.0,68.98,360.0,81.04,71.25,100434.06,1,1
3.8,BOOST,55.9997847,95.0002862,381.55,315.0,66.55,55.9997736,95.0002928,381.66,1.3,0.11,4.378,-1.023,30.245,30.577,0.0,68.08,360.0,81.55,74.28,100434.19,1,1
3.9,BOOST,55.9997841,95.0002928,384.61,315.0,69.61,55.9997729,95.0002894,384.8,1.27,0.19,4.125,-0.38,30.867,31.144,0.0,67.17,360.0,82.36,77.37,100434.28,1,1
4.0,BOOST,55.999784,95.0002994,387.72,315.0,72.72,55.9997728,95.0002961,387.91,1.27,0.19,4.127,0.295,31.447,31.718,0.0,66.24,0.0,82.5,80.51,100434.28,1,1
4.1,BOOST,55.9997849,95.0003062,390.86,315.0,75.86,55.99978,95.0003055,390.24,0.54,-0.62,4.193,1.266,31.686,31.987,0.0,65.3,360.0,82.13,83.69,100433.49,1,1
4.2,BOOST,55.9997863,95.0003129,394.06,315.0,79.06,55.9997814,95.0003122,393.44,0.54,-0.62,4.192,1.993,32.246,32.578,360.0,64.35,360.0,81.81,86.91,100433.32,1,1
4.3,BOOST,55.9997886,95.0003199,397.32,315.0,82.32,55.9997878,95.000328,396.77,0.51,-0.54,4.392,2.914,32.825,33.246,0.0,63.39,0.0,80.88,90.21,100432.61,1,1
4.4,BOOST,55.9997915,95.0003269,400.63,315.0,85.63,55.9997908,95.000335,400.08,0.51,-0.54,4.392,3.691,33.361,33.851,360.0,62.42,0.0,80.24,93.56,100432.28,1,1
4.5,BOOST,55.9997951,95.0003342,404.0,315.0,89.0,55.9997896,95.0003489,403.67,1.1,-0.32,4.538,4.311,33.966,34.538,0.0,61.44,360.0,79.56,96.99,100432.42,1,1
4.6,BOOST,55.9997993,95.0003415,407.42,315.0,92.42,55.9997938,95.0003562,407.09,1.1,-0.32,4.539,5.141,34.477,35.153,0.0,60.45,0.0,78.75,100.47,100431.95,1,1
4.7,BOOST,55.9998045,95.0003484,410.9,315.0,95.9,55.9998054,95.0003535,410.76,0.33,-0.13,4.339,6.234,35.039,35.852,360.0,59.46,360.0,77.77,104.03,100430.66,1,1
4.8,BOOST,55.9998105,95.0003554,414.43,315.0,99.43,55.9998114,95.0003604,414.29,0.33,-0.13,4.338,7.117,35.52,36.484,0.0,58.45,0.0,76.79,107.65,100429.99,1,1
4.9,BOOST,55.9998173,95.0003626,417.98,315.0,102.98,55.9998171,95.0003765,417.36,0.87,-0.62,4.516,7.988,35.821,36.978,360.0,57.44,0.0,75.63,111.31,100429.36,1,1
5.0,BOOST,55.9998249,95.0003699,421.59,315.0,106.59,55.9998247,95.0003838,420.97,0.87,-0.62,4.517,8.923,36.273,37.626,360.0,56.42,360.0,74.59,115.04,100428.51,1,1
5.1,BOOST,55.9998335,95.0003772,425.25,315.0,110.25,55.9998388,95.0003942,425.1,1.22,-0.15,4.576,10.072,36.858,38.482,0.0,55.4,360.0,73.29,118.86,100426.94,1,1
5.2,BOOST,55.999843,95.0003845,428.96,315.0,113.96,55.9998483,95.0004015,428.81,1.22,-0.15,4.577,11.058,37.275,39.149,360.0,54.37,0.0,72.2,122.74,100425.89,1,1
5.3,BOOST,55.9998533,95.0003917,432.71,315.0,117.71,55.9998577,95.0004029,432.63,0.85,-0.08,4.471,12.038,37.698,39.825,360.0,53.34,360.0,71.19,126.69,100424.84,1,1
5.4,BOOST,55.9998646,95.0003989,436.5,317.0,119.5,55.999869,95.0004101,436.42,0.85,-0.08,4.472,13.076,38.081,40.511,0.0,52.3,0.0,70.05,130.71,100423.59,1,1
5.5,BOOST,55.9998769,95.0004057,440.33,317.0,123.33,55.9998843,95.0004059,440.27,0.82,-0.06,4.278,14.234,38.451,41.223,0.0,51.26,360.0,68.87,134.8,100421.89,1,1
5.6,BOOST,55.9998902,95.0004126,444.19,317.0,127.19,55.9998975,95.0004128,444.13,0.82,-0.06,4.279,15.322,38.795,41.93,0.0,50.21,360.0,67.7,138.95,100420.42,1,1
5.7,BOOST,55.9999043,95.0004196,448.09,318.0,130.09,55.9999083,95.0004249,448.16,0.55,0.07,4.367,16.331,39.158,42.651,360.0,49.17,360.0,66.65,143.18,100419.22,1,1
5.8,BOOST,55.9999195,95.0004266,452.02,318.0,134.02,55.9999235,95.0004319,452.09,0.55,0.07,4.367,17.468,39.462,43.376,0.0,48.12,0.0,65.47,147.49,100417.53,1,1
5.9,BOOST,55.9999358,95.0004336,455.98,318.0,137.98,55.9999413,95.0004411,456.14,0.77,0.15,4.401,18.674,39.767,44.154,360.0,47.07,360.0,64.24,151.86,100415.55,1,1
6.0,BOOST,55.9999531,95.0004407,459.97,318.0,141.97,55.9999586,95.0004482,460.13,0.77,0.15,4.402,19.859,40.031,44.903,0.0,46.02,0.0,63.06,156.32,100413.62,1,1
6.1,BOOST,55.9999714,95.0004476,463.99,318.0,145.99,55.9999749,95.0004493,464.21,0.4,0.22,4.311,21.008,40.292,45.644,360.0,44.97,0.0,61.98,160.85,100411.82,1,1
6.2,BOOST,55.9999908,95.0004545,468.03,318.0,150.03,55.9999943,95.0004562,468.25,0.4,0.22,4.312,22.238,40.511,46.413,360.0,43.92,0.0,60.79,165.45,100409.66,1,1
6.3,BOOST,56.0000115,95.0004614,472.09,318.0,154.09,56.0000223,95.000463,472.38,1.21,0.29,4.31,23.69,40.724,47.31,0.0,42.87,360.0,59.41,170.14,100406.54,1,1
6.4,BOOST,56.0000334,95.0004683,476.17,318.0,158.17,56.0000442,95.0004699,476.46,1.21,0.29,4.311,24.964,40.9,48.11,0.0,41.83,360.0,58.23,174.91,100404.11,1,1
6.5,BOOST,56.0000563,95.0004752,480.27,318.0,162.27,56.000066,95.0004744,480.52,1.08,0.25,4.277,26.23,41.043,48.897,0.0,40.78,0.0,57.08,179.76,100401.68,1,1
6.6,BOOST,56.0000805,95.000482,484.38,318.0,166.38,56.0000902,95.0004813,484.63,1.08,0.25,4.277,27.548,41.171,49.722,360.0,39.74,360.0,55.9,184.69,100398.99,1,1
6.7,BOOST,56.0001058,95.0004889,488.5,318.0,170.5,56.0001156,95.0004882,488.78,1.09,0.28,4.277,28.888,41.281,50.566,0.0,38.7,360.0,54.72,189.71,100396.17,1,1
6.8,BOOST,56.0001324,95.0004958,492.64,318.0,174.64,56.0001422,95.000495,492.91,1.09,0.28,4.277,30.245,41.361,51.417,360.0,37.67,0.0,53.55,194.81,100393.22,1,1
6.9,BOOST,56.0001601,95.0005027,496.77,319.0,177.77,56.0001658,95.000504,497.02,0.65,0.25,4.306,31.521,41.411,52.22,0.0,36.64,360.0,52.47,199.99,100390.58,1,1
7.0,BOOST,56.000189,95.0005096,500.92,319.0,181.92,56.0001948,95.0005109,501.17,0.65,0.25,4.307,32.916,41.442,53.098,0.0,35.62,0.0,51.3,205.26,100387.37,1,1
7.1,BOOST,56.0002192,95.0005164,505.07,319.0,186.07,56.0002241,95.000516,505.57,0.55,0.5,4.283,34.31,41.503,54.018,360.0,34.6,0.0,50.2,210.61,100384.11,1,1
7.2,BOOST,56.0002506,95.0005233,509.22,319.0,190.22,56.0002556,95.0005228,509.71,0.55,0.5,4.283,35.741,41.484,54.924,360.0,33.59,360.0,49.05,216.06,100380.61,1,1
7.3,BOOST,56.0002834,95.0005302,513.36,319.0,194.36,56.0002891,95.0005309,513.76,0.64,0.4,4.299,37.208,41.417,55.842,360.0,32.58,0.0,47.88,221.6,100376.87,1,1
7.4,BOOST,56.0003175,95.0005371,517.5,319.0,198.5,56.0003232,95.0005378,517.9,0.64,0.4,4.298,38.672,41.347,56.777,360.0,31.59,360.0,46.74,227.23,100373.08,1,1
7.5,BOOST,56.0003529,95.0005439,521.63,319.0,202.63,56.0003574,95.0005402,521.99,0.55,0.36,4.242,40.125,41.244,57.698,0.0,30.6,0.0,45.63,232.96,100369.28,1,1
7.6,BOOST,56.0003896,95.0005507,525.75,319.0,206.75,56.0003941,95.000547,526.1,0.55,0.36,4.242,41.621,41.123,58.663,360.0,29.62,360.0,44.51,238.77,100365.2,1,1
7.7,BOOST,56.0004275,95.0005575,529.86,319.0,210.86,56.0004281,95.0005539,530.31,0.23,0.45,4.243,43.042,40.996,59.593,360.0,28.65,0.0,43.47,244.69,100361.42,1,1
7.8,BOOST,56.0004669,95.0005643,533.95,319.0,214.95,56.0004675,95.0005607,534.4,0.23,0.45,4.242,44.568,40.824,60.588,0.0,27.69,360.0,42.36,250.7,100357.04,1,1
7.9,BOOST,56.0005076,95.000571,538.02,319.0,219.02,56.0005091,95.0005649,538.44,0.42,0.42,4.211,46.125,40.618,61.605,360.0,26.74,0.0,41.25,256.81,100352.41,1,1
8.0,BOOST,56.0005497,95.0005778,542.07,319.0,223.07,56.0005513,95.0005716,542.49,0.42,0.42,4.21,47.677,40.396,62.631,0.0,25.8,360.0,40.16,263.02,100347.73,1,1
8.1,BOOST,56.0005932,95.0005845,546.09,319.0,227.09,56.0005937,95.000575,546.39,0.59,0.29,4.171,49.219,40.123,63.638,0.0,24.87,0.0,39.09,269.33,100343.01,1,1
8.2,BOOST,56.0006382,95.0005911,550.09,319.0,231.09,56.0006386,95.0005817,550.39,0.59,0.29,4.171,50.796,39.849,64.696,360.0,23.95,360.0,38.02,275.75,100338.02,1,1
8.3,BOOST,56.0006845,95.0005978,554.06,319.0,235.06,56.0006866,95.0005886,554.32,0.62,0.26,4.171,52.417,39.544,65.793,360.0,23.05,0.0,36.94,282.28,100332.67,1,1
8.4,BOOST,56.0007323,95.0006045,558.0,318.0,240.0,56.0007344,95.0005953,558.26,0.62,0.26,4.17,54.014,39.22,66.881,360.0,22.16,0.0,35.9,288.91,100327.36,1,1
8.5,BOOST,56.0007816,95.0006112,561.91,318.0,243.91,56.0007846,95.0006015,562.28,0.69,0.37,4.167,55.639,38.891,68.012,0.0,21.29,360.0,34.88,295.66,100321.78,1,1
8.6,BOOST,56.0008323,95.0006179,565.78,318.0,247.78,56.0008353,95.0006082,566.15,0.69,0.37,4.167,57.257,38.517,69.133,0.0,20.43,0.0,33.86,302.52,100316.15,1,1
8.7,BOOST,56.0008844,95.0006245,569.61,318.0,251.61,56.0008859,95.000612,569.88,0.8,0.27,4.136,58.852,38.1,70.231,360.0,19.58,0.0,32.85,309.48,100310.52,1,1
8.8,BOOST,56.000938,95.0006311,573.4,318.0,255.4,56.0009395,95.0006186,573.67,0.8,0.27,4.136,60.486,37.678,71.381,360.0,18.75,360.0,31.86,316.56,100304.56,1,1
8.9,BOOST,56.0009931,95.0006378,577.15,318.0,259.15,56.0009958,95.0006309,577.55,0.53,0.4,4.194,62.15,37.256,72.582,0.0,17.94,0.0,30.88,323.77,100298.3,1,1
9.0,BOOST,56.0010496,95.0006446,580.85,318.0,262.85,56.0010524,95.0006376,581.25,0.53,0.4,4.193,63.799,36.786,73.764,0.0,17.14,360.0,29.91,331.08,100292.01,1,1
9.1,BOOST,56.0011076,95.0006513,584.5,318.0,266.5,56.0011087,95.0006462,584.53,0.34,0.03,4.209,65.422,36.229,74.902,0.0,16.36,360.0,28.93,338.52,100285.75,1,1
9.2,BOOST,56.0011671,95.0006581,588.09,318.0,270.09,56.0011682,95.0006529,588.13,0.34,0.03,4.208,67.082,35.714,76.114,360.0,15.6,360.0,27.98,346.07,100279.13,1,1
9.3,BOOST,56.0012281,95.0006648,591.64,318.0,273.64,56.0012301,95.0006587,591.59,0.44,-0.05,4.197,68.767,35.164,77.35,360.0,14.86,0.0,27.04,353.74,100272.24,1,1
9.4,BOOST,56.0012907,95.0006715,595.13,319.0,276.13,56.0012926,95.0006654,595.08,0.44,-0.05,4.196,70.44,34.605,78.593,360.0,14.14,0.0,26.12,361.54,100265.29,1,1
9.5,BOOST,56.0013547,95.0006782,598.56,319.0,279.56,56.0013579,95.0006717,598.55,0.54,-0.01,4.191,72.139,34.031,79.873,0.0,13.43,0.0,25.22,369.47,100258.03,1,1
9.6,BOOST,56.0014202,95.000685,601.93,319.0,282.93,56.0014235,95.0006784,601.92,0.54,-0.01,4.191,73.818,33.43,81.144,0.0,12.75,360.0,24.33,377.52,100250.74,1,1
9.7,BOOST,56.0014873,95.0006916,605.24,319.0,286.24,56.0014917,95.0006821,605.25,0.77,0.01,4.16,75.524,32.812,82.449,0.0,12.09,0.0,23.45,385.7,100243.16,1,1
9.8,BOOST,56.0015559,95.0006983,608.49,320.0,288.49,56.0015603,95.0006888,608.5,0.77,0.01,4.16,77.212,32.171,83.749,0.0,11.45,360.0,22.59,394.01,100235.53,1,1
9.9,BOOST,56.001626,95.000705,611.68,320.0,291.68,56.00163,95.0006957,611.63,0.73,-0.05,4.162,78.896,31.503,85.055,360.0,10.83,360.0,21.74,402.45,100227.77,1,1
10.0,BOOST,56.0016976,95.0007116,614.79,320.0,294.79,56.0017017,95.0007024,614.75,0.73,-0.05,4.161,80.588,30.825,86.383,360.0,10.23,0.0,20.91,411.02,100219.81,1,1
10.1,BOOST,56.0017708,95.0007183,617.85,320.0,297.85,56.0017744,95.0007074,618.1,0.79,0.26,4.144,82.278,30.177,87.735,0.0,9.66,0.0,20.12,419.73,100211.72,1,1
10.2,BOOST,56.0018454,95.0007249,620.83,321.0,299.83,56.0018491,95.0007141,621.08,0.79,0.26,4.145,83.975,29.464,89.09,360.0,9.11,360.0,19.31,428.57,100203.42,1,1
10.3,BOOST,56.0019216,95.0007316,623.74,321.0,302.74,56.0019223,95.0007211,623.84,0.66,0.1,4.147,85.624,28.713,90.405,0.0,8.59,360.0,18.52,437.55,100195.28,1,1
10.4,BOOST,56.0019992,95.0007382,626.57,321.0,305.57,56.0019999,95.0007277,626.67,0.66,0.1,4.147,87.324,27.969,91.787,0.0,8.09,360.0,17.74,446.66,100186.65,1,1
10.5,BOOST,56.0020784,95.0007449,629.33,321.0,308.33,56.0020779,95.0007371,629.6,0.49,0.27,4.17,89.005,27.233,93.172,360.0,7.62,0.0,17.0,455.91,100177.98,1,1
10.6,BOOST,56.0021591,95.0007516,632.02,323.0,309.02,56.0021586,95.0007438,632.28,0.49,0.27,4.169,90.706,26.462,94.579,0.0,7.17,0.0,16.25,465.3,100169.01,1,1
10.7,BOOST,56.0022414,95.0007583,634.62,323.0,311.62,56.0022428,95.0007557,634.84,0.23,0.22,4.214,92.44,25.669,96.03,0.0,6.75,360.0,15.5,474.83,100159.64,1,1
10.8,BOOST,56.0023251,95.0007651,637.15,323.0,314.15,56.0023266,95.0007624,637.36,0.23,0.22,4.213,94.142,24.871,97.463,0.0,6.36,0.0,14.78,484.51,100150.32,1,1
10.9,BOOST,56.0024105,95.0007718,639.6,326.0,313.6,56.0024124,95.0007698,639.83,0.25,0.24,4.216,95.851,24.065,98.915,0.0,6.0,0.0,14.08,494.33,100140.79,1,1
11.0,BOOST,56.0024973,95.0007786,641.96,326.0,315.96,56.0024992,95.0007765,642.2,0.25,0.24,4.214,97.552,23.245,100.371,360.0,5.66,0.0,13.39,504.29,100131.13,1,1
11.1,BOOST,56.0025857,95.0007853,644.24,326.0,318.24,56.0025869,95.000782,644.41,0.25,0.17,4.202,99.242,22.407,101.827,360.0,5.35,360.0,12.71,514.4,100121.39,1,1
11.2,BOOST,56.0026756,95.0007921,646.44,328.0,318.44,56.0026767,95.0007887,646.61,0.25,0.17,4.201,100.942,21.57,103.307,360.0,5.08,360.0,12.05,524.66,100111.39,1,1
11.3,BOOST,56.002767,95.0007988,648.56,328.0,320.56,56.0027683,95.0007939,648.63,0.33,0.07,4.186,102.643,20.712,104.795,0.0,4.83,0.0,11.4,535.07,100101.21,1,1
11.4,BOOST,56.00286,95.0008055,650.58,328.0,322.58,56.0028612,95.0008006,650.65,0.33,0.07,4.184,104.34,19.859,106.295,360.0,4.61,0.0,10.77,545.62,100090.88,1,1
11.5,BOOST,56.0029544,95.0008123,652.53,331.0,321.53,56.0029556,95.0008119,652.66,0.14,0.14,4.219,106.035,19.011,107.808,0.0,4.43,0.0,10.16,556.33,100080.38,1,1
11.6,BOOST,56.0030504,95.000819,654.39,331.0,323.39,56.0030516,95.0008186,654.52,0.14,0.14,4.218,107.729,18.15,109.329,0.0,4.28,0.0,9.56,567.19,100069.7,1,1
11.7,BOOST,56.0031479,95.0008257,656.16,331.0,325.16,56.0031456,95.0008225,656.33,0.33,0.17,4.192,109.37,17.289,110.808,0.0,4.16,360.0,8.98,578.19,100059.26,1,1
11.8,BOOST,56.0032469,95.0008325,657.84,333.0,324.84,56.0032446,95.0008292,658.01,0.33,0.17,4.19,111.062,16.423,112.348,360.0,4.07,0.0,8.41,589.35,100048.25,1,1
11.9,BOOST,56.0033474,95.0008391,659.44,333.0,326.44,56.003346,95.0008316,659.62,0.49,0.18,4.155,112.764,15.555,113.907,360.0,4.02,0.0,7.85,600.67,100036.97,1,1
12.0,CRUISE,56.0034494,95.0008458,660.96,333.0,327.96,56.0034481,95.0008382,661.13,0.49,0.18,4.154,114.451,14.687,115.464,360.0,4.0,0.0,7.31,612.14,100025.62,1,1
12.1,CRUISE,56.0035523,95.0008528,662.36,333.0,329.36,56.0035518,95.0008466,662.56,0.39,0.2,4.638,114.612,13.38,115.484,0.0,6.65,2.32,6.65,623.69,100014.09,1,0
12.2,CRUISE,56.0036553,95.0008606,663.63,333.0,330.63,56.0036548,95.0008544,663.83,0.39,0.2,5.112,114.756,12.069,115.503,360.0,6.0,2.55,6.0,635.24,100002.64,1,0
12.3,CRUISE,56.0037584,95.0008692,664.78,333.0,331.78,56.0037575,95.0008646,665.13,0.31,0.35,5.598,114.888,10.776,115.528,360.0,5.35,2.79,5.35,646.79,99991.22,1,0
12.4,CRUISE,56.0038617,95.0008786,665.79,333.0,332.79,56.0038607,95.0008739,666.14,0.31,0.35,6.072,115.021,9.461,115.569,0.0,4.7,3.02,4.7,658.34,99979.74,1,0
12.5,CRUISE,56.003965,95.0008887,666.67,333.0,333.67,56.0039638,95.0008856,667.09,0.24,0.42,6.56,115.144,8.155,115.619,0.0,4.04,3.26,4.04,669.9,99968.28,1,0
12.6,CRUISE,56.0040685,95.0008996,667.42,332.0,335.42,56.0040672,95.0008965,667.84,0.24,0.42,7.034,115.266,6.836,115.682,0.0,3.39,3.49,3.39,681.47,99956.78,1,0
12.7,CRUISE,56.0041721,95.0009112,668.04,332.0,336.04,56.004171,95.000904,668.51,0.47,0.47,7.48,115.381,5.52,115.755,360.0,2.73,3.71,2.73,693.04,99945.24,1,0
12.8,CRUISE,56.0042758,95.0009236,668.52,332.0,336.52,56.0042747,95.0009164,668.99,0.47,0.47,7.958,115.49,4.197,115.84,0.0,2.08,3.94,2.08,704.62,99933.71,1,0
12.9,CRUISE,56.0043795,95.0009367,668.87,329.0,339.87,56.0043777,95.0009256,669.21,0.72,0.34,8.407,115.584,2.855,115.924,0.0,1.41,4.16,1.41,716.2,99922.26,1,0
13.0,CRUISE,56.0044834,95.0009506,669.09,329.0,340.09,56.0044815,95.0009395,669.43,0.72,0.34,8.886,115.68,1.527,116.031,0.0,0.75,4.39,0.75,727.8,99910.71,1,0
13.1,CRUISE,56.0045873,95.0009651,669.18,326.0,343.18,56.0045842,95.000948,669.5,1.12,0.32,9.323,115.757,0.196,116.132,360.0,0.1,4.6,0.1,739.41,99899.29,1,0
13.2,CRUISE,56.0046913,95.0009804,669.13,325.0,344.13,56.0046883,95.0009633,669.46,1.12,0.32,9.803,115.841,-1.135,116.261,0.0,359.44,4.84,-0.56,751.03,99887.73,1,0
13.3,CRUISE,56.0047954,95.0009966,668.95,325.0,343.95,56.0047906,95.0009824,669.25,1.03,0.3,10.307,115.897,-2.472,116.381,0.0,358.78,5.08,-1.22,762.66,99876.35,1,0
13.4,CRUISE,56.0048995,95.0010135,668.64,324.0,344.64,56.0048947,95.0009993,668.93,1.03,0.3,10.791,115.97,-3.808,116.533,360.0,358.13,5.32,-1.87,774.31,99864.77,1,0
13.5,CRUISE,56.0050037,95.0010312,668.19,324.0,344.19,56.004998,95.0010192,668.41,0.98,0.22,11.291,116.023,-5.155,116.685,360.0,357.47,5.56,-2.53,785.97,99853.29,1,0
13.6,CRUISE,56.0051079,95.0010497,667.61,324.0,343.61,56.0051022,95.0010377,667.83,0.98,0.22,11.778,116.082,-6.496,116.858,360.0,356.81,5.79,-3.19,797.64,99841.7,1,0
13.7,CRUISE,56.0052122,95.001069,666.89,326.0,340.89,56.0052074,95.0010598,667.07,0.78,0.18,12.284,116.145,-7.843,117.056,360.0,356.16,6.04,-3.84,809.34,99830.01,1,0
13.8,CRUISE,56.0053165,95.0010891,666.04,326.0,340.04,56.0053117,95.0010799,666.22,0.78,0.18,12.772,116.191,-9.188,117.252,360.0,355.51,6.27,-4.49,821.06,99818.41,1,0
13.9,CRUISE,56.0054209,95.0011099,665.05,330.0,335.05,56.0054153,95.0011015,665.19,0.82,0.14,13.266,116.221,-10.542,117.449,0.0,354.85,6.51,-5.15,832.79,99806.89,1,0
14.0,CRUISE,56.0055253,95.0011316,663.93,330.0,333.93,56.0055197,95.0011231,664.07,0.82,0.14,13.757,116.253,-11.891,117.667,0.0,354.2,6.75,-5.8,844.55,99795.28,1,0
14.1,CRUISE,56.0056297,95.0011541,662.67,330.0,332.67,56.0056233,95.0011476,662.55,0.82,-0.12,14.265,116.269,-13.263,117.889,0.0,353.54,6.99,-6.46,856.32,99783.76,1,0
14.2,CRUISE,56.0057341,95.0011773,661.28,332.0,329.28,56.0057278,95.0011708,661.16,0.82,-0.12,14.758,116.286,-14.617,118.126,360.0,352.89,7.23,-7.11,868.13,99772.15,1,0
14.3,CRUISE,56.0058386,95.0012014,659.75,332.0,327.75,56.0058337,95.0011939,659.79,0.72,0.04,15.247,116.314,-15.958,118.389,0.0,352.25,7.47,-7.75,879.95,99760.37,1,0
14.4,CRUISE,56.0059431,95.0012262,658.09,332.0,326.09,56.0059382,95.0012188,658.12,0.72,0.04,15.743,116.316,-17.318,118.647,360.0,351.61,7.71,-8.39,891.8,99748.75,1,0
14.5,CRUISE,56.0060475,95.0012519,656.28,332.0,324.28,56.0060444,95.0012457,656.19,0.52,-0.09,16.25,116.332,-18.693,118.94,360.0,350.96,7.95,-9.04,903.68,99736.94,1,0
14.6,CRUISE,56.006152,95.0012783,654.35,332.0,322.35,56.0061488,95.0012721,654.25,0.52,-0.09,16.753,116.32,-20.058,119.22,360.0,350.31,8.2,-9.69,915.59,99725.33,1,0
14.7,CRUISE,56.0062565,95.0013056,652.27,330.0,322.27,56.0062531,95.0012995,652.22,0.54,-0.06,17.256,116.298,-21.422,119.506,360.0,349.67,8.44,-10.33,927.53,99713.74,1,0
14.8,CRUISE,56.0063609,95.0013336,650.06,330.0,320.06,56.0063575,95.0013276,650.01,0.54,-0.06,17.759,116.272,-22.792,119.808,360.0,349.03,8.68,-10.97,939.5,99702.13,1,0
14.9,CRUISE,56.0064653,95.0013625,647.71,330.0,317.71,56.006462,95.0013572,647.62,0.5,-0.09,18.269,116.237,-24.169,120.121,360.0,348.39,8.93,-11.61,951.49,99690.52,1,0
15.0,CRUISE,56.0065697,95.0013922,645.23,329.0,316.23,56.0065663,95.0013869,645.14,0.5,-0.09,18.776,116.196,-25.545,120.443,360.0,347.75,9.18,-12.24,963.52,99678.91,1,0
15.1,CRUISE,56.0066741,95.0014227,642.61,329.0,313.61,56.0066718,95.001418,642.6,0.39,-0.01,19.288,116.158,-26.913,120.785,360.0,347.13,9.43,-12.87,975.58,99667.18,1,0
15.2,CRUISE,56.0067784,95.0014541,639.85,329.0,310.85,56.0067761,95.0014493,639.84,0.39,-0.01,19.799,116.1,-28.291,121.126,0.0,346.49,9.68,-13.51,987.68,99655.59,1,0
15.3,CRUISE,56.0068826,95.0014862,636.95,328.0,308.95,56.006881,95.0014781,637.06,0.54,0.12,20.291,116.041,-29.661,121.479,360.0,345.87,9.92,-14.13,999.81,99643.93,1,0
15.4,CRUISE,56.0069868,95.0015191,633.91,328.0,305.91,56.0069852,95.001511,634.03,0.54,0.12,20.806,115.967,-31.046,121.84,360.0,345.24,10.17,-14.76,1011.98,99632.34,1,0
15.5,CRUISE,56.0070909,95.0015529,630.74,328.0,302.74,56.0070878,95.0015457,630.76,0.57,0.02,21.329,115.866,-32.438,122.197,360.0,344.61,10.43,-15.39,1024.18,99620.94,1,0
15.6,CRUISE,56.0071949,95.0015875,627.43,328.0,299.43,56.0071918,95.0015803,627.45,0.57,0.02,21.847,115.774,-33.828,122.577,360.0,343.98,10.69,-16.02,1036.42,99609.37,1,0
15.7,CRUISE,56.0072989,95.0016229,623.97,328.0,295.97,56.0072962,95.0016155,624.13,0.55,0.15,22.366,115.679,-35.206,122.969,360.0,343.36,10.94,-16.64,1048.69,99597.77,1,0
15.8,CRUISE,56.0074027,95.0016592,620.38,331.0,289.38,56.0074001,95.0016518,620.54,0.55,0.15,22.889,115.569,-36.6,123.367,360.0,342.74,11.2,-17.26,1061.01,99586.22,1,0
15.9,CRUISE,56.0075065,95.0016963,616.65,331.0,285.65,56.007506,95.0016894,616.65,0.43,-0.01,23.42,115.475,-38.003,123.803,0.0,342.12,11.46,-17.88,1073.37,99574.45,1,0
16.0,CRUISE,56.0076101,95.0017343,612.78,331.0,281.78,56.0076096,95.0017274,612.77,0.43,-0.01,23.946,115.347,-39.401,124.22,360.0,341.51,11.73,-18.49,1085.77,99562.92,1,0
16.1,CRUISE,56.0077137,95.0017731,608.77,333.0,275.77,56.0077128,95.0017667,608.69,0.41,-0.08,24.478,115.205,-40.805,124.645,360.0,340.89,12.0,-19.11,1098.22,99551.46,1,0
16.2,CRUISE,56.0078171,95.0018128,604.62,333.0,271.62,56.0078162,95.0018063,604.54,0.41,-0.08,25.011,115.058,-42.206,125.081,0.0,340.28,12.26,-19.72,1110.7,99539.96,1,0
16.3,CRUISE,56.0079203,95.0018533,600.33,332.0,268.33,56.0079192,95.0018478,600.27,0.37,-0.06,25.56,114.902,-43.596,125.524,0.0,339.68,12.54,-20.32,1123.23,99528.51,1,0
16.4,CRUISE,56.0080235,95.0018947,595.9,332.0,263.9,56.0080223,95.0018892,595.84,0.37,-0.06,26.118,114.742,-44.975,125.979,360.0,339.08,12.82,-20.92,1135.81,99517.05,1,0
16.5,CRUISE,56.0081264,95.0019371,591.34,332.0,259.34,56.0081251,95.0019339,591.36,0.25,0.03,26.704,114.574,-46.334,126.44,0.0,338.5,13.12,-21.5,1148.43,99505.62,1,0
16.6,CRUISE,56.0082293,95.0019804,586.64,330.0,256.64,56.0082279,95.0019772,586.66,0.25,0.03,27.291,114.401,-47.684,126.91,360.0,337.93,13.42,-22.07,1161.1,99494.19,1,0
16.7,CRUISE,56.0083319,95.0020246,581.8,330.0,251.8,56.0083292,95.0020201,581.83,0.41,0.03,27.884,114.21,-49.02,127.375,360.0,337.37,13.72,-22.63,1173.81,99482.93,1,0
16.8,CRUISE,56.0084344,95.0020698,576.83,330.0,246.83,56.0084317,95.0020653,576.86,0.41,0.03,28.5,114.029,-50.338,127.863,360.0,336.82,14.03,-23.18,1186.57,99471.53,1,0
16.9,CRUISE,56.0085367,95.002116,571.74,328.0,243.74,56.0085337,95.0021124,571.75,0.4,0.02,29.138,113.843,-51.635,128.357,360.0,336.28,14.36,-23.72,1199.39,99460.2,1,0
17.0,CRUISE,56.0086389,95.0021632,566.51,328.0,238.51,56.0086359,95.0021597,566.52,0.4,0.02,29.785,113.655,-52.915,128.859,0.0,335.75,14.68,-24.25,1212.25,99448.84,1,0
17.1,CRUISE,56.0087409,95.0022115,561.15,328.0,233.15,56.008738,95.0022075,561.17,0.4,0.02,30.446,113.467,-54.173,129.37,360.0,335.24,15.02,-24.76,1225.16,99437.49,1,0
17.2,CRUISE,56.0088427,95.0022608,555.67,326.0,229.67,56.0088398,95.0022569,555.69,0.4,0.02,31.125,113.277,-55.408,129.887,360.0,334.75,15.36,-25.25,1238.12,99426.17,1,0
17.3,CRUISE,56.0089444,95.0023113,550.07,326.0,224.07,56.0089438,95.0023093,550.18,0.14,0.11,31.827,113.107,-56.614,130.428,0.0,334.27,15.72,-25.73,1251.14,99414.62,1,0
17.4,CRUISE,56.0090459,95.0023629,544.35,325.0,219.35,56.0090453,95.0023609,544.46,0.14,0.11,32.538,112.918,-57.797,130.957,0.0,333.81,16.07,-26.19,1264.21,99403.33,1,0
17.5,CRUISE,56.0091472,95.0024156,538.51,325.0,213.51,56.0091473,95.0024132,538.57,0.15,0.06,33.262,112.741,-58.951,131.499,360.0,333.37,16.44,-26.63,1277.33,99392.0,1,0
17.6,CRUISE,56.0092484,95.0024695,532.56,325.0,207.56,56.0092485,95.0024672,532.62,0.15,0.06,34.002,112.56,-60.073,132.041,360.0,332.94,16.81,-27.06,1290.51,99380.75,1,0
17.7,CRUISE,56.0093494,95.0025246,526.5,325.0,201.5,56.0093497,95.0025214,526.53,0.21,0.03,34.751,112.39,-61.162,132.589,360.0,332.53,17.18,-27.47,1303.74,99369.5,1,0
17.8,CRUISE,56.0094503,95.002581,520.33,325.0,195.33,56.0094506,95.0025777,520.37,0.21,0.03,35.517,112.222,-62.219,133.141,0.0,332.14,17.56,-27.86,1317.03,99358.29,1,0
17.9,CRUISE,56.009551,95.0026385,514.06,325.0,189.06,56.0095511,95.0026382,514.17,0.02,0.11,36.307,112.057,-63.24,133.695,360.0,331.77,17.95,-28.23,1330.37,99347.12,1,0
18.0,CRUISE,56.0096516,95.0026974,507.68,327.0,180.68,56.0096517,95.002697,507.8,0.02,0.11,37.094,111.907,-64.229,134.255,0.0,331.42,18.34,-28.58,1343.77,99335.94,1,0
18.1,CRUISE,56.009752,95.0027574,501.21,327.0,174.21,56.0097513,95.0027547,501.46,0.19,0.25,37.874,111.754,-65.182,134.804,0.0,331.08,18.72,-28.92,1357.22,99324.87,1,0
18.2,CRUISE,56.0098523,95.0028188,494.65,327.0,167.65,56.0098516,95.0028161,494.89,0.19,0.25,38.676,111.625,-66.099,135.37,360.0,330.77,19.11,-29.23,1370.73,99313.73,1,0
18.3,CRUISE,56.0099525,95.0028814,487.99,327.0,160.99,56.0099512,95.0028777,488.08,0.27,0.09,39.476,111.51,-66.986,135.941,0.0,330.48,19.49,-29.52,1384.3,99302.65,1,0
18.4,CRUISE,56.0100526,95.0029454,481.25,327.0,154.25,56.0100513,95.0029417,481.34,0.27,0.09,40.289,111.409,-67.834,136.516,360.0,330.21,19.88,-29.79,1397.92,99291.53,1,0
18.5,CRUISE,56.0101527,95.0030106,474.43,326.0,148.43,56.0101512,95.0030076,474.4,0.25,-0.02,41.106,111.326,-68.648,137.098,0.0,329.95,20.27,-30.05,1411.6,99280.43,1,0
18.6,CRUISE,56.0102526,95.0030772,467.52,326.0,141.52,56.0102511,95.0030742,467.5,0.25,-0.02,41.924,111.254,-69.427,137.678,0.0,329.72,20.65,-30.28,1425.34,99269.32,1,0
18.7,CRUISE,56.0103525,95.0031451,460.54,326.0,134.54,56.0103502,95.0031443,460.5,0.26,-0.04,42.752,111.189,-70.174,138.257,360.0,329.5,21.03,-30.5,1439.14,99258.32,1,0
18.8,CRUISE,56.0104523,95.0032143,453.49,325.0,128.49,56.01045,95.0032135,453.45,0.26,-0.04,43.57,111.144,-70.891,138.841,0.0,329.3,21.41,-30.7,1452.99,99247.23,1,0
18.9,CRUISE,56.0105521,95.0032848,446.37,325.0,121.37,56.0105496,95.0032819,446.33,0.33,-0.04,44.375,111.109,-71.581,139.421,360.0,329.11,21.77,-30.89,1466.91,99236.16,1,0
19.0,CRUISE,56.0106519,95.0033565,439.18,325.0,114.18,56.0106494,95.0033537,439.13,0.33,-0.04,45.19,111.091,-72.241,140.007,0.0,328.94,22.14,-31.06,1480.88,99225.07,1,0
19.1,CRUISE,56.0107517,95.0034296,431.92,324.0,107.92,56.01075,95.0034264,431.83,0.27,-0.09,45.997,111.098,-72.875,140.603,360.0,328.78,22.49,-31.22,1494.91,99213.89,1,0
19.2,CRUISE,56.0108515,95.003504,424.6,324.0,100.6,56.0108498,95.0035008,424.51,0.27,-0.09,46.806,111.109,-73.479,141.192,0.0,328.64,22.84,-31.36,1509.0,99202.81,1,0
19.3,CRUISE,56.0109513,95.0035797,417.22,324.0,93.22,56.0109507,95.0035774,417.23,0.16,0.01,47.614,111.138,-74.058,141.786,360.0,328.51,23.19,-31.49,1523.15,99191.6,1,0
19.4,CRUISE,56.0110511,95.0036567,409.79,325.0,84.79,56.0110505,95.0036544,409.8,0.16,0.01,48.413,111.177,-74.61,142.376,0.0,328.4,23.53,-31.6,1537.36,99180.51,1,0
19.5,CRUISE,56.011151,95.003735,402.3,325.0,77.3,56.0111492,95.0037327,402.37,0.25,0.06,49.207,111.217,-75.139,142.956,0.0,328.29,23.87,-31.71,1551.63,99169.55,1,0
19.6,CRUISE,56.0112509,95.0038145,394.76,325.0,69.76,56.0112491,95.0038122,394.83,0.25,0.06,49.997,111.283,-75.644,143.547,0.0,328.2,24.19,-31.8,1565.95,99158.45,1,0
19.7,CRUISE,56.0113509,95.0038953,387.18,325.0,62.18,56.0113495,95.0038946,387.37,0.16,0.2,50.791,111.358,-76.129,144.139,0.0,328.12,24.52,-31.88,1580.34,99147.3,1,0
19.8,CRUISE,56.0114509,95.0039773,379.54,325.0,54.54,56.0114496,95.0039767,379.74,0.16,0.2,51.57,111.448,-76.592,144.729,0.0,328.05,24.83,-31.95,1594.78,99136.18,1,0
19.9,CRUISE,56.0115511,95.0040606,371.86,325.0,46.86,56.0115512,95.0040605,372.26,0.02,0.4,52.346,111.552,-77.036,145.322,0.0,327.99,25.14,-32.01,1609.28,99124.89,1,0
20.0,CRUISE,56.0116513,95.0041452,364.13,325.0,39.13,56.0116515,95.0041451,364.53,0.02,0.4,53.115,111.664,-77.46,145.911,0.0,327.94,25.44,-32.06,1623.85,99113.76,1,0
20.1,CRUISE,56.0117517,95.004231,356.37,325.0,31.37,56.0117531,95.0042337,356.8,0.23,0.43,53.893,111.796,-77.865,146.512,0.0,327.9,25.74,-32.1,1638.47,99102.47,1,0
20.2,CRUISE,56.0118521,95.004318,348.56,324.0,24.56,56.0118536,95.0043207,348.99,0.23,0.43,54.653,111.928,-78.253,147.1,0.0,327.86,26.03,-32.14,1653.15,99091.32,1,0
20.3,CRUISE,56.0119527,95.0044062,340.72,324.0,16.72,56.0119538,95.0044102,341.25,0.27,0.53,55.417,112.062,-78.623,147.684,360.0,327.83,26.31,-32.17,1667.89,99080.19,1,0
20.4,CRUISE,56.0120534,95.0044957,332.84,324.0,8.84,56.0120545,95.0044996,333.37,0.27,0.53,56.178,112.201,-78.987,148.27,360.0,327.81,26.6,-32.19,1682.69,99069.0,1,0
20.5,CRUISE,56.0121543,95.0045864,324.92,322.0,2.92,56.0121551,95.0045924,325.36,0.39,0.44,56.956,112.337,-79.351,148.863,0.0,327.79,26.89,-32.21,1697.55,99057.83,1,0
20.538,IMPACT,56.0121926,95.0046212,321.9,322.0,-0.1,56.0121935,95.0046272,322.34,0.39,0.44,57.249,112.388,-79.485,149.085,0.0,327.78,26.99,-32.22,1703.21,99053.58,1,0
